%time,field.header.seq,field.header.stamp,field.header.frame_id,field.child_frame_id,field.pose.pose.position.x,field.pose.pose.position.y,field.pose.pose.position.z,field.pose.pose.orientation.x,field.pose.pose.orientation.y,field.pose.pose.orientation.z,field.pose.pose.orientation.w,field.pose.covariance0,field.pose.covariance1,field.pose.covariance2,field.pose.covariance3,field.pose.covariance4,field.pose.covariance5,field.pose.covariance6,field.pose.covariance7,field.pose.covariance8,field.pose.covariance9,field.pose.covariance10,field.pose.covariance11,field.pose.covariance12,field.pose.covariance13,field.pose.covariance14,field.pose.covariance15,field.pose.covariance16,field.pose.covariance17,field.pose.covariance18,field.pose.covariance19,field.pose.covariance20,field.pose.covariance21,field.pose.covariance22,field.pose.covariance23,field.pose.covariance24,field.pose.covariance25,field.pose.covariance26,field.pose.covariance27,field.pose.covariance28,field.pose.covariance29,field.pose.covariance30,field.pose.covariance31,field.pose.covariance32,field.pose.covariance33,field.pose.covariance34,field.pose.covariance35,field.twist.twist.linear.x,field.twist.twist.linear.y,field.twist.twist.linear.z,field.twist.twist.angular.x,field.twist.twist.angular.y,field.twist.twist.angular.z,field.twist.covariance0,field.twist.covariance1,field.twist.covariance2,field.twist.covariance3,field.twist.covariance4,field.twist.covariance5,field.twist.covariance6,field.twist.covariance7,field.twist.covariance8,field.twist.covariance9,field.twist.covariance10,field.twist.covariance11,field.twist.covariance12,field.twist.covariance13,field.twist.covariance14,field.twist.covariance15,field.twist.covariance16,field.twist.covariance17,field.twist.covariance18,field.twist.covariance19,field.twist.covariance20,field.twist.covariance21,field.twist.covariance22,field.twist.covariance23,field.twist.covariance24,field.twist.covariance25,field.twist.covariance26,field.twist.covariance27,field.twist.covariance28,field.twist.covariance29,field.twist.covariance30,field.twist.covariance31,field.twist.covariance32,field.twist.covariance33,field.twist.covariance34,field.twist.covariance35
17973033060,298,17973033060,map,ego_vehicle,258.4000244140625,143.3359832763672,0.01695180870592594,-0.00010533632193816368,0.00010598798235845324,0.7071197197067977,0.7070938266401331,0.0,0.0,0.0,0.0,0.0,0.0,0.0,0.0,0.0,0.0,0.0,0.0,0.0,0.0,0.0,0.0,0.0,0.0,0.0,0.0,0.0,0.0,0.0,0.0,0.0,0.0,0.0,0.0,0.0,0.0,0.0,0.0,0.0,0.0,0.0,0.0,0.5751852363713762,-0.00010709942885268679,0.0006388510761064859,0.0035803223005091782,1.3978723730270106e-05,0.0006308392090486781,0.0,0.0,0.0,0.0,0.0,0.0,0.0,0.0,0.0,0.0,0.0,0.0,0.0,0.0,0.0,0.0,0.0,0.0,0.0,0.0,0.0,0.0,0.0,0.0,0.0,0.0,0.0,0.0,0.0,0.0,0.0,0.0,0.0,0.0,0.0,0.0
18023033061,299,18023033061,map,ego_vehicle,258.3999938964844,143.3730926513672,0.017073115333914757,-0.00017552598740507727,0.00017581012037067728,0.7071069005658612,0.7071066181655852,0.0,0.0,0.0,0.0,0.0,0.0,0.0,0.0,0.0,0.0,0.0,0.0,0.0,0.0,0.0,0.0,0.0,0.0,0.0,0.0,0.0,0.0,0.0,0.0,0.0,0.0,0.0,0.0,0.0,0.0,0.0,0.0,0.0,0.0,0.0,0.0,0.8597979548339917,-5.042481031977042e-06,0.0006880428666713231,0.004134588541192716,4.045302979297029e-06,-0.0019620823726699274,0.0,0.0,0.0,0.0,0.0,0.0,0.0,0.0,0.0,0.0,0.0,0.0,0.0,0.0,0.0,0.0,0.0,0.0,0.0,0.0,0.0,0.0,0.0,0.0,0.0,0.0,0.0,0.0,0.0,0.0,0.0,0.0,0.0,0.0,0.0,0.0
18073033061,300,18073033061,map,ego_vehicle,258.3999938964844,143.42431640625,0.017195986583828926,-0.00024687614053488824,0.00024691629729530444,0.7071123874700994,0.70710108865059,0.0,0.0,0.0,0.0,0.0,0.0,0.0,0.0,0.0,0.0,0.0,0.0,0.0,0.0,0.0,0.0,0.0,0.0,0.0,0.0,0.0,0.0,0.0,0.0,0.0,0.0,0.0,0.0,0.0,0.0,0.0,0.0,0.0,0.0,0.0,0.0,1.1384942534371536,5.787085664611046e-06,0.0006536419691000557,0.0039011588306067184,5.3430182406957796e-06,0.00022364551941611542,0.0,0.0,0.0,0.0,0.0,0.0,0.0,0.0,0.0,0.0,0.0,0.0,0.0,0.0,0.0,0.0,0.0,0.0,0.0,0.0,0.0,0.0,0.0,0.0,0.0,0.0,0.0,0.0,0.0,0.0,0.0,0.0,0.0,0.0,0.0,0.0
18123033062,301,18123033062,map,ego_vehicle,258.3999938964844,143.4892578125,0.01730329543352127,-0.00030843291688593364,0.0003084283170435923,0.7071119866896528,0.7071014411107654,0.0,0.0,0.0,0.0,0.0,0.0,0.0,0.0,0.0,0.0,0.0,0.0,0.0,0.0,0.0,0.0,0.0,0.0,0.0,0.0,0.0,0.0,0.0,0.0,0.0,0.0,0.0,0.0,0.0,0.0,0.0,0.0,0.0,0.0,0.0,0.0,1.4063203336589172,1.4541229206373257e-06,0.000561848387630356,0.0031493268687083575,1.749751995305055e-06,-3.6234634397330136e-06,0.0,0.0,0.0,0.0,0.0,0.0,0.0,0.0,0.0,0.0,0.0,0.0,0.0,0.0,0.0,0.0,0.0,0.0,0.0,0.0,0.0,0.0,0.0,0.0,0.0,0.0,0.0,0.0,0.0,0.0,0.0,0.0,0.0,0.0,0.0,0.0
18173033063,302,18173033063,map,ego_vehicle,258.3999938964844,143.56719970703125,0.017384586855769157,-0.00035386752797741407,0.00035386229170060696,0.7071119654119815,0.7071014198334322,0.0,0.0,0.0,0.0,0.0,0.0,0.0,0.0,0.0,0.0,0.0,0.0,0.0,0.0,0.0,0.0,0.0,0.0,0.0,0.0,0.0,0.0,0.0,0.0,0.0,0.0,0.0,0.0,0.0,0.0,0.0,0.0,0.0,0.0,0.0,0.0,1.6618199350349105,3.4225733212931727e-07,0.0004420247095407948,0.0021657611408986478,2.930348727453309e-07,-3.3619868973918323e-06,0.0,0.0,0.0,0.0,0.0,0.0,0.0,0.0,0.0,0.0,0.0,0.0,0.0,0.0,0.0,0.0,0.0,0.0,0.0,0.0,0.0,0.0,0.0,0.0,0.0,0.0,0.0,0.0,0.0,0.0,0.0,0.0,0.0,0.0,0.0,0.0
18223033064,303,18223033064,map,ego_vehicle,258.3999938964844,143.65774536132812,0.017437992617487907,-0.00038189540369623995,0.0003818897082644241,0.7071119508302434,0.7071014052518909,0.0,0.0,0.0,0.0,0.0,0.0,0.0,0.0,0.0,0.0,0.0,0.0,0.0,0.0,0.0,0.0,0.0,0.0,0.0,0.0,0.0,0.0,0.0,0.0,0.0,0.0,0.0,0.0,0.0,0.0,0.0,0.0,0.0,0.0,0.0,0.0,1.9113434555264592,-4.9358428863492784e-08,0.0003132843233641212,0.0012223908103092078,-4.698242049846026e-07,-3.5991723961675156e-06,0.0,0.0,0.0,0.0,0.0,0.0,0.0,0.0,0.0,0.0,0.0,0.0,0.0,0.0,0.0,0.0,0.0,0.0,0.0,0.0,0.0,0.0,0.0,0.0,0.0,0.0,0.0,0.0,0.0,0.0,0.0,0.0,0.0,0.0,0.0,0.0
18273033064,304,18273033064,map,ego_vehicle,258.3999938964844,143.76072692871094,0.017466410994529724,-0.0003951296669197772,0.00039512361627586616,0.7071120847932667,0.7071012567441768,0.0,0.0,0.0,0.0,0.0,0.0,0.0,0.0,0.0,0.0,0.0,0.0,0.0,0.0,0.0,0.0,0.0,0.0,0.0,0.0,0.0,0.0,0.0,0.0,0.0,0.0,0.0,0.0,0.0,0.0,0.0,0.0,0.0,0.0,0.0,0.0,2.1581933500765085,-9.657726449053397e-07,0.000191362111766953,0.0004552374798016474,-9.317936700893484e-07,-3.865642416348362e-06,0.0,0.0,0.0,0.0,0.0,0.0,0.0,0.0,0.0,0.0,0.0,0.0,0.0,0.0,0.0,0.0,0.0,0.0,0.0,0.0,0.0,0.0,0.0,0.0,0.0,0.0,0.0,0.0,0.0,0.0,0.0,0.0,0.0,0.0,0.0,0.0
18323033065,305,18323033065,map,ego_vehicle,258.3999938964844,143.87599182128906,0.017475146800279617,-0.00039715276950110634,0.0003971466878773061,0.707112083659876,0.7071012556108034,0.0,0.0,0.0,0.0,0.0,0.0,0.0,0.0,0.0,0.0,0.0,0.0,0.0,0.0,0.0,0.0,0.0,0.0,0.0,0.0,0.0,0.0,0.0,0.0,0.0,0.0,0.0,0.0,0.0,0.0,0.0,0.0,0.0,0.0,0.0,0.0,2.4041466715623914,-9.568995747049513e-07,8.681515864491395e-05,-8.8353156835052e-05,-7.478499446027856e-07,-4.1556994507690595e-06,0.0,0.0,0.0,0.0,0.0,0.0,0.0,0.0,0.0,0.0,0.0,0.0,0.0,0.0,0.0,0.0,0.0,0.0,0.0,0.0,0.0,0.0,0.0,0.0,0.0,0.0,0.0,0.0,0.0,0.0,0.0,0.0,0.0,0.0,0.0,0.0
18373033066,306,18373033066,map,ego_vehicle,258.3999938964844,144.0035858154297,0.017470264807343483,-0.00039187857084412714,0.00039188413558780114,0.7071120865960746,0.7071012585533668,0.0,0.0,0.0,0.0,0.0,0.0,0.0,0.0,0.0,0.0,0.0,0.0,0.0,0.0,0.0,0.0,0.0,0.0,0.0,0.0,0.0,0.0,0.0,0.0,0.0,0.0,0.0,0.0,0.0,0.0,0.0,0.0,0.0,0.0,0.0,0.0,2.650189400016901,-8.575406609045375e-07,4.1873170415032045e-06,-0.00041497576362845094,-4.711117824268951e-07,-4.454387955836267e-06,0.0,0.0,0.0,0.0,0.0,0.0,0.0,0.0,0.0,0.0,0.0,0.0,0.0,0.0,0.0,0.0,0.0,0.0,0.0,0.0,0.0,0.0,0.0,0.0,0.0,0.0,0.0,0.0,0.0,0.0,0.0,0.0,0.0,0.0,0.0,0.0
18423033067,307,18423033067,map,ego_vehicle,258.3999938964844,144.1435089111328,0.017457256093621254,-0.0003825987367682632,0.00038261937243984833,0.7071119504357858,0.7071014048716925,0.0,0.0,0.0,0.0,0.0,0.0,0.0,0.0,0.0,0.0,0.0,0.0,0.0,0.0,0.0,0.0,0.0,0.0,0.0,0.0,0.0,0.0,0.0,0.0,0.0,0.0,0.0,0.0,0.0,0.0,0.0,0.0,0.0,0.0,0.0,0.0,2.8968842032841193,4.563290474002453e-07,-5.3695342741258314e-05,-0.0005592291089942254,-3.941329886495614e-07,-4.773770910211941e-06,0.0,0.0,0.0,0.0,0.0,0.0,0.0,0.0,0.0,0.0,0.0,0.0,0.0,0.0,0.0,0.0,0.0,0.0,0.0,0.0,0.0,0.0,0.0,0.0,0.0,0.0,0.0,0.0,0.0,0.0,0.0,0.0,0.0,0.0,0.0,0.0
18473033067,308,18473033067,map,ego_vehicle,258.3999938964844,144.29579162597656,0.017440738156437874,-0.00037247707119213153,0.00037251053470645776,0.707111955833597,0.7071014102757244,0.0,0.0,0.0,0.0,0.0,0.0,0.0,0.0,0.0,0.0,0.0,0.0,0.0,0.0,0.0,0.0,0.0,0.0,0.0,0.0,0.0,0.0,0.0,0.0,0.0,0.0,0.0,0.0,0.0,0.0,0.0,0.0,0.0,0.0,0.0,0.0,3.144557237979641,6.519192811055611e-07,-8.896776820471049e-05,-0.0005689009480556203,-1.424901892565787e-07,-5.094971845075703e-06,0.0,0.0,0.0,0.0,0.0,0.0,0.0,0.0,0.0,0.0,0.0,0.0,0.0,0.0,0.0,0.0,0.0,0.0,0.0,0.0,0.0,0.0,0.0,0.0,0.0,0.0,0.0,0.0,0.0,0.0,0.0,0.0,0.0,0.0,0.0,0.0
18523033068,309,18523033068,map,ego_vehicle,258.3999938964844,144.4604949951172,0.017424067482352257,-0.0003630796290907312,0.00036311051627802395,0.7071119607232453,0.7071014151633862,0.0,0.0,0.0,0.0,0.0,0.0,0.0,0.0,0.0,0.0,0.0,0.0,0.0,0.0,0.0,0.0,0.0,0.0,0.0,0.0,0.0,0.0,0.0,0.0,0.0,0.0,0.0,0.0,0.0,0.0,0.0,0.0,0.0,0.0,0.0,0.0,3.3934042457617357,8.838028422633847e-07,-0.00010540702721555505,-0.0004911417156746481,-9.59700213461275e-08,-5.428574566364921e-06,0.0,0.0,0.0,0.0,0.0,0.0,0.0,0.0,0.0,0.0,0.0,0.0,0.0,0.0,0.0,0.0,0.0,0.0,0.0,0.0,0.0,0.0,0.0,0.0,0.0,0.0,0.0,0.0,0.0,0.0,0.0,0.0,0.0,0.0,0.0,0.0
18573033069,310,18573033069,map,ego_vehicle,258.3999938964844,144.63768005371094,0.017409419640898705,-0.0003556594823447533,0.0003556949664925012,0.7071119644924481,0.7071014189344086,0.0,0.0,0.0,0.0,0.0,0.0,0.0,0.0,0.0,0.0,0.0,0.0,0.0,0.0,0.0,0.0,0.0,0.0,0.0,0.0,0.0,0.0,0.0,0.0,0.0,0.0,0.0,0.0,0.0,0.0,0.0,0.0,0.0,0.0,0.0,0.0,3.6435422901481154,1.0134798392626962e-06,-0.00010547832866830215,-0.00036780006904760335,-1.484900582228231e-07,-5.770268545322417e-06,0.0,0.0,0.0,0.0,0.0,0.0,0.0,0.0,0.0,0.0,0.0,0.0,0.0,0.0,0.0,0.0,0.0,0.0,0.0,0.0,0.0,0.0,0.0,0.0,0.0,0.0,0.0,0.0,0.0,0.0,0.0,0.0,0.0,0.0,0.0,0.0
18623033070,311,18623033070,map,ego_vehicle,258.3999938964844,144.827392578125,0.017398089170455933,-0.00035064385466968337,0.00035067966057282925,0.7071119669975611,0.7071014214393173,0.0,0.0,0.0,0.0,0.0,0.0,0.0,0.0,0.0,0.0,0.0,0.0,0.0,0.0,0.0,0.0,0.0,0.0,0.0,0.0,0.0,0.0,0.0,0.0,0.0,0.0,0.0,0.0,0.0,0.0,0.0,0.0,0.0,0.0,0.0,0.0,3.895047903505354,1.1254434179014503e-06,-9.498165635881131e-05,-0.00023066752619659776,-1.0370253391250393e-07,-6.115251550169934e-06,0.0,0.0,0.0,0.0,0.0,0.0,0.0,0.0,0.0,0.0,0.0,0.0,0.0,0.0,0.0,0.0,0.0,0.0,0.0,0.0,0.0,0.0,0.0,0.0,0.0,0.0,0.0,0.0,0.0,0.0,0.0,0.0,0.0,0.0,0.0,0.0
18673033070,312,18673033070,map,ego_vehicle,258.3999938964844,145.0297393798828,0.017390498891472816,-0.00034798945236488794,0.00034802352802685443,0.7071119683098734,0.7071014227505851,0.0,0.0,0.0,0.0,0.0,0.0,0.0,0.0,0.0,0.0,0.0,0.0,0.0,0.0,0.0,0.0,0.0,0.0,0.0,0.0,0.0,0.0,0.0,0.0,0.0,0.0,0.0,0.0,0.0,0.0,0.0,0.0,0.0,0.0,0.0,0.0,4.147967815874209,1.214047980933414e-06,-7.856031514625754e-05,-0.0001015325289199112,2.2737566158515998e-07,-6.465064724467364e-06,0.0,0.0,0.0,0.0,0.0,0.0,0.0,0.0,0.0,0.0,0.0,0.0,0.0,0.0,0.0,0.0,0.0,0.0,0.0,0.0,0.0,0.0,0.0,0.0,0.0,0.0,0.0,0.0,0.0,0.0,0.0,0.0,0.0,0.0,0.0,0.0
18723033071,313,18723033071,map,ego_vehicle,258.3999938964844,145.24476623535156,0.017386455088853836,-0.0003474432895780341,0.00034747387489453036,0.7071119685801939,0.7071014230191519,0.0,0.0,0.0,0.0,0.0,0.0,0.0,0.0,0.0,0.0,0.0,0.0,0.0,0.0,0.0,0.0,0.0,0.0,0.0,0.0,0.0,0.0,0.0,0.0,0.0,0.0,0.0,0.0,0.0,0.0,0.0,0.0,0.0,0.0,0.0,0.0,4.402337074785773,1.3000076191684842e-06,-5.8950928096410335e-05,6.525850494533913e-06,-3.523905118126126e-08,-6.823924624803594e-06,0.0,0.0,0.0,0.0,0.0,0.0,0.0,0.0,0.0,0.0,0.0,0.0,0.0,0.0,0.0,0.0,0.0,0.0,0.0,0.0,0.0,0.0,0.0,0.0,0.0,0.0,0.0,0.0,0.0,0.0,0.0,0.0,0.0,0.0,0.0,0.0
18773033072,314,18773033072,map,ego_vehicle,258.3999938964844,145.47254943847656,0.017385464161634445,-0.0003483718594482935,0.00034839975559621753,0.7071119681245976,0.7071014225622914,0.0,0.0,0.0,0.0,0.0,0.0,0.0,0.0,0.0,0.0,0.0,0.0,0.0,0.0,0.0,0.0,0.0,0.0,0.0,0.0,0.0,0.0,0.0,0.0,0.0,0.0,0.0,0.0,0.0,0.0,0.0,0.0,0.0,0.0,0.0,0.0,4.658137798845658,1.3513142809921757e-06,-3.954451271485094e-05,8.789753099926424e-05,2.941561892939358e-07,-7.1861014887014974e-06,0.0,0.0,0.0,0.0,0.0,0.0,0.0,0.0,0.0,0.0,0.0,0.0,0.0,0.0,0.0,0.0,0.0,0.0,0.0,0.0,0.0,0.0,0.0,0.0,0.0,0.0,0.0,0.0,0.0,0.0,0.0,0.0,0.0,0.0,0.0,0.0
18823033072,315,18823033072,map,ego_vehicle,258.3999938964844,145.71226501464844,0.01738191582262516,-0.00034668598688172397,0.0003467139081721006,0.7071119689532434,0.7071014233908457,0.0,0.0,0.0,0.0,0.0,0.0,0.0,0.0,0.0,0.0,0.0,0.0,0.0,0.0,0.0,0.0,0.0,0.0,0.0,0.0,0.0,0.0,0.0,0.0,0.0,0.0,0.0,0.0,0.0,0.0,0.0,0.0,0.0,0.0,0.0,0.0,4.846098900397646,1.2357187465228945e-06,-2.1898492634028805e-05,-0.0006994190531030275,2.428590525622891e-07,-4.733349162991856e-06,0.0,0.0,0.0,0.0,0.0,0.0,0.0,0.0,0.0,0.0,0.0,0.0,0.0,0.0,0.0,0.0,0.0,0.0,0.0,0.0,0.0,0.0,0.0,0.0,0.0,0.0,0.0,0.0,0.0,0.0,0.0,0.0,0.0,0.0,0.0,0.0
18873033073,316,18873033073,map,ego_vehicle,258.3999938964844,145.95462036132812,0.01733453758060932,-0.00030938680990746687,0.0003094131472053905,0.7071119862593909,0.707101440694053,0.0,0.0,0.0,0.0,0.0,0.0,0.0,0.0,0.0,0.0,0.0,0.0,0.0,0.0,0.0,0.0,0.0,0.0,0.0,0.0,0.0,0.0,0.0,0.0,0.0,0.0,0.0,0.0,0.0,0.0,0.0,0.0,0.0,0.0,0.0,0.0,4.845240593513194,1.2148428575572322e-06,-6.9665610052024e-06,-0.002870532913725842,3.311635403224597e-07,-7.409931510533038e-07,0.0,0.0,0.0,0.0,0.0,0.0,0.0,0.0,0.0,0.0,0.0,0.0,0.0,0.0,0.0,0.0,0.0,0.0,0.0,0.0,0.0,0.0,0.0,0.0,0.0,0.0,0.0,0.0,0.0,0.0,0.0,0.0,0.0,0.0,0.0,0.0
18923033074,317,18923033074,map,ego_vehicle,258.3999938964844,146.1969451904297,0.017256030812859535,-0.0002466719113922566,0.0002466990727852319,0.7071119638429216,0.7071015124313781,0.0,0.0,0.0,0.0,0.0,0.0,0.0,0.0,0.0,0.0,0.0,0.0,0.0,0.0,0.0,0.0,0.0,0.0,0.0,0.0,0.0,0.0,0.0,0.0,0.0,0.0,0.0,0.0,0.0,0.0,0.0,0.0,0.0,0.0,0.0,0.0,4.844317436774109,1.7891018256278103e-06,5.638488847665868e-06,-0.003858867884511125,4.4938960776986e-07,-1.0351766906928404e-07,0.0,0.0,0.0,0.0,0.0,0.0,0.0,0.0,0.0,0.0,0.0,0.0,0.0,0.0,0.0,0.0,0.0,0.0,0.0,0.0,0.0,0.0,0.0,0.0,0.0,0.0,0.0,0.0,0.0,0.0,0.0,0.0,0.0,0.0,0.0,0.0
18973033075,318,18973033075,map,ego_vehicle,258.3999938964844,146.43922424316406,0.017168216407299042,-0.0001762465499966023,0.00017626966920067358,0.7071119849077019,0.7071015334915115,0.0,0.0,0.0,0.0,0.0,0.0,0.0,0.0,0.0,0.0,0.0,0.0,0.0,0.0,0.0,0.0,0.0,0.0,0.0,0.0,0.0,0.0,0.0,0.0,0.0,0.0,0.0,0.0,0.0,0.0,0.0,0.0,0.0,0.0,0.0,0.0,4.8434057241266215,1.7139240668406671e-06,1.2477453769457689e-05,-0.003983996664373093,4.07454273693284e-07,-3.885858538192887e-09,0.0,0.0,0.0,0.0,0.0,0.0,0.0,0.0,0.0,0.0,0.0,0.0,0.0,0.0,0.0,0.0,0.0,0.0,0.0,0.0,0.0,0.0,0.0,0.0,0.0,0.0,0.0,0.0,0.0,0.0,0.0,0.0,0.0,0.0,0.0,0.0
19023033075,319,19023033075,map,ego_vehicle,258.3999938964844,146.68145751953125,0.017085781320929527,-0.00010978279511175637,0.0001098022766124553,0.7071119983532512,0.7071015469337267,0.0,0.0,0.0,0.0,0.0,0.0,0.0,0.0,0.0,0.0,0.0,0.0,0.0,0.0,0.0,0.0,0.0,0.0,0.0,0.0,0.0,0.0,0.0,0.0,0.0,0.0,0.0,0.0,0.0,0.0,0.0,0.0,0.0,0.0,0.0,0.0,4.842502117714289,1.8850129580798671e-06,1.627194580356146e-05,-0.00355538039249923,1.9824784512008472e-07,1.121376174104464e-08,0.0,0.0,0.0,0.0,0.0,0.0,0.0,0.0,0.0,0.0,0.0,0.0,0.0,0.0,0.0,0.0,0.0,0.0,0.0,0.0,0.0,0.0,0.0,0.0,0.0,0.0,0.0,0.0,0.0,0.0,0.0,0.0,0.0,0.0,0.0,0.0
19073033076,320,19073033076,map,ego_vehicle,258.3999938964844,146.92364501953125,0.01701723039150238,-5.4235522747392273e-05,5.4250459190450404e-05,0.7071120047975606,0.7071015533758713,0.0,0.0,0.0,0.0,0.0,0.0,0.0,0.0,0.0,0.0,0.0,0.0,0.0,0.0,0.0,0.0,0.0,0.0,0.0,0.0,0.0,0.0,0.0,0.0,0.0,0.0,0.0,0.0,0.0,0.0,0.0,0.0,0.0,0.0,0.0,0.0,4.841601849161948,2.0575827288104746e-06,1.7126892385887457e-05,-0.002836051479467446,1.422979114061646e-07,1.3653691746938909e-08,0.0,0.0,0.0,0.0,0.0,0.0,0.0,0.0,0.0,0.0,0.0,0.0,0.0,0.0,0.0,0.0,0.0,0.0,0.0,0.0,0.0,0.0,0.0,0.0,0.0,0.0,0.0,0.0,0.0,0.0,0.0,0.0,0.0,0.0,0.0,0.0
19123033077,321,19123033077,map,ego_vehicle,258.3999938964844,147.16575622558594,0.0169659610837698,-1.2812076105875288e-05,1.281320638941137e-05,0.7071120067626073,0.7071015553397056,0.0,0.0,0.0,0.0,0.0,0.0,0.0,0.0,0.0,0.0,0.0,0.0,0.0,0.0,0.0,0.0,0.0,0.0,0.0,0.0,0.0,0.0,0.0,0.0,0.0,0.0,0.0,0.0,0.0,0.0,0.0,0.0,0.0,0.0,0.0,0.0,4.840704918467993,2.1301876411240826e-06,1.673061948997683e-05,-0.0020272253995353,5.640038104828822e-07,1.3638933195678071e-08,0.0,0.0,0.0,0.0,0.0,0.0,0.0,0.0,0.0,0.0,0.0,0.0,0.0,0.0,0.0,0.0,0.0,0.0,0.0,0.0,0.0,0.0,0.0,0.0,0.0,0.0,0.0,0.0,0.0,0.0,0.0,0.0,0.0,0.0,0.0,0.0
19173033078,322,19173033078,map,ego_vehicle,258.3999938964844,147.40780639648438,0.01693212427198887,1.4920535807672027e-05,-1.4919431649261946e-05,0.7071120067213035,0.7071015552983598,0.0,0.0,0.0,0.0,0.0,0.0,0.0,0.0,0.0,0.0,0.0,0.0,0.0,0.0,0.0,0.0,0.0,0.0,0.0,0.0,0.0,0.0,0.0,0.0,0.0,0.0,0.0,0.0,0.0,0.0,0.0,0.0,0.0,0.0,0.0,0.0,4.839807510935304,2.0734836194293124e-06,1.4019394914770457e-05,-0.0012652771965723534,5.076868217971095e-08,1.3644185398580388e-08,0.0,0.0,0.0,0.0,0.0,0.0,0.0,0.0,0.0,0.0,0.0,0.0,0.0,0.0,0.0,0.0,0.0,0.0,0.0,0.0,0.0,0.0,0.0,0.0,0.0,0.0,0.0,0.0,0.0,0.0,0.0,0.0,0.0,0.0,0.0,0.0
19223033078,323,19223033078,map,ego_vehicle,258.3999938964844,147.6497802734375,0.016913432627916336,3.0303808271871614e-05,-3.0303357795988358e-05,0.7071120062293554,0.7071015548064378,0.0,0.0,0.0,0.0,0.0,0.0,0.0,0.0,0.0,0.0,0.0,0.0,0.0,0.0,0.0,0.0,0.0,0.0,0.0,0.0,0.0,0.0,0.0,0.0,0.0,0.0,0.0,0.0,0.0,0.0,0.0,0.0,0.0,0.0,0.0,0.0,4.838906288705871,2.052307352955234e-06,1.0617607603856833e-05,-0.0006295377321067807,5.946519521803678e-08,1.5869699727169307e-08,0.0,0.0,0.0,0.0,0.0,0.0,0.0,0.0,0.0,0.0,0.0,0.0,0.0,0.0,0.0,0.0,0.0,0.0,0.0,0.0,0.0,0.0,0.0,0.0,0.0,0.0,0.0,0.0,0.0,0.0,0.0,0.0,0.0,0.0,0.0,0.0
19273033079,324,19273033079,map,ego_vehicle,258.3999938964844,147.89170837402344,0.016906527802348137,3.616226345121843e-05,-3.6161726384820255e-05,0.7071120059540184,0.7071015545311045,0.0,0.0,0.0,0.0,0.0,0.0,0.0,0.0,0.0,0.0,0.0,0.0,0.0,0.0,0.0,0.0,0.0,0.0,0.0,0.0,0.0,0.0,0.0,0.0,0.0,0.0,0.0,0.0,0.0,0.0,0.0,0.0,0.0,0.0,0.0,0.0,4.838004589639154,2.0214325368549655e-06,7.392974156593377e-06,-0.00015323358177787318,3.721345088325137e-08,1.5269868194159243e-08,0.0,0.0,0.0,0.0,0.0,0.0,0.0,0.0,0.0,0.0,0.0,0.0,0.0,0.0,0.0,0.0,0.0,0.0,0.0,0.0,0.0,0.0,0.0,0.0,0.0,0.0,0.0,0.0,0.0,0.0,0.0,0.0,0.0,0.0,0.0,0.0
19323033080,325,19323033080,map,ego_vehicle,258.3999938964844,148.1339111328125,0.016909807920455933,3.380243462902179e-05,-3.380110412260107e-05,0.7071120060708037,0.7071015546478486,0.0,0.0,0.0,0.0,0.0,0.0,0.0,0.0,0.0,0.0,0.0,0.0,0.0,0.0,0.0,0.0,0.0,0.0,0.0,0.0,0.0,0.0,0.0,0.0,0.0,0.0,0.0,0.0,0.0,0.0,0.0,0.0,0.0,0.0,0.0,0.0,4.871020317639144,1.9911501883035e-06,4.402714803418195e-06,0.0005932290806580893,-2.624844255934058e-07,-1.443548129573863e-06,0.0,0.0,0.0,0.0,0.0,0.0,0.0,0.0,0.0,0.0,0.0,0.0,0.0,0.0,0.0,0.0,0.0,0.0,0.0,0.0,0.0,0.0,0.0,0.0,0.0,0.0,0.0,0.0,0.0,0.0,0.0,0.0,0.0,0.0,0.0,0.0
19373033081,326,19373033081,map,ego_vehicle,258.3999938964844,148.38661193847656,0.017015894874930382,-1.2431870543024535e-05,1.2434768554294274e-05,0.7071120067693637,0.7071015553464922,0.0,0.0,0.0,0.0,0.0,0.0,0.0,0.0,0.0,0.0,0.0,0.0,0.0,0.0,0.0,0.0,0.0,0.0,0.0,0.0,0.0,0.0,0.0,0.0,0.0,0.0,0.0,0.0,0.0,0.0,0.0,0.0,0.0,0.0,0.0,0.0,5.175020695340826,2.2090452119755534e-06,0.0023471920338834244,0.0037673279638234564,-1.448335924242824e-08,-7.901890542283927e-06,0.0,0.0,0.0,0.0,0.0,0.0,0.0,0.0,0.0,0.0,0.0,0.0,0.0,0.0,0.0,0.0,0.0,0.0,0.0,0.0,0.0,0.0,0.0,0.0,0.0,0.0,0.0,0.0,0.0,0.0,0.0,0.0,0.0,0.0,0.0,0.0
19423033081,327,19423033081,map,ego_vehicle,258.3999938964844,148.6534881591797,0.01721612922847271,-9.284931229484574e-05,9.284968918766744e-05,0.707112000782553,0.7071015493599454,0.0,0.0,0.0,0.0,0.0,0.0,0.0,0.0,0.0,0.0,0.0,0.0,0.0,0.0,0.0,0.0,0.0,0.0,0.0,0.0,0.0,0.0,0.0,0.0,0.0,0.0,0.0,0.0,0.0,0.0,0.0,0.0,0.0,0.0,0.0,0.0,5.445389271400206,1.2566086319591653e-06,0.0017584690599224363,0.004827699361500781,3.4961821379558994e-07,-8.541164916659352e-06,0.0,0.0,0.0,0.0,0.0,0.0,0.0,0.0,0.0,0.0,0.0,0.0,0.0,0.0,0.0,0.0,0.0,0.0,0.0,0.0,0.0,0.0,0.0,0.0,0.0,0.0,0.0,0.0,0.0,0.0,0.0,0.0,0.0,0.0,0.0,0.0
19473033082,328,19473033082,map,ego_vehicle,258.3999938964844,148.9330596923828,0.017390957102179527,-0.00017663230711137076,0.00017664254675536808,0.7071118435802475,0.7071016746317198,0.0,0.0,0.0,0.0,0.0,0.0,0.0,0.0,0.0,0.0,0.0,0.0,0.0,0.0,0.0,0.0,0.0,0.0,0.0,0.0,0.0,0.0,0.0,0.0,0.0,0.0,0.0,0.0,0.0,0.0,0.0,0.0,0.0,0.0,0.0,0.0,5.689639092122444,1.4884766219484076e-06,0.0011611518527969815,0.004562970226025247,-3.1213857226093744e-09,-8.197295355016612e-06,0.0,0.0,0.0,0.0,0.0,0.0,0.0,0.0,0.0,0.0,0.0,0.0,0.0,0.0,0.0,0.0,0.0,0.0,0.0,0.0,0.0,0.0,0.0,0.0,0.0,0.0,0.0,0.0,0.0,0.0,0.0,0.0,0.0,0.0,0.0,0.0
19523033083,329,19523033083,map,ego_vehicle,258.3999938964844,149.2242889404297,0.01752176322042942,-0.0002477703261522998,0.0002477922898922333,0.7071116339137085,0.7071018415990246,0.0,0.0,0.0,0.0,0.0,0.0,0.0,0.0,0.0,0.0,0.0,0.0,0.0,0.0,0.0,0.0,0.0,0.0,0.0,0.0,0.0,0.0,0.0,0.0,0.0,0.0,0.0,0.0,0.0,0.0,0.0,0.0,0.0,0.0,0.0,0.0,5.9157757765330725,2.4539347285644866e-06,0.0006237977956902001,0.003605918295447012,-1.5302381850070818e-07,-7.843315403981603e-06,0.0,0.0,0.0,0.0,0.0,0.0,0.0,0.0,0.0,0.0,0.0,0.0,0.0,0.0,0.0,0.0,0.0,0.0,0.0,0.0,0.0,0.0,0.0,0.0,0.0,0.0,0.0,0.0,0.0,0.0,0.0,0.0,0.0,0.0,0.0,0.0
19573033084,330,19573033084,map,ego_vehicle,258.3999938964844,149.52645874023438,0.017603473737835884,-0.0002990126677695874,0.00029905105915210595,0.7071114257801295,0.70710201010256,0.0,0.0,0.0,0.0,0.0,0.0,0.0,0.0,0.0,0.0,0.0,0.0,0.0,0.0,0.0,0.0,0.0,0.0,0.0,0.0,0.0,0.0,0.0,0.0,0.0,0.0,0.0,0.0,0.0,0.0,0.0,0.0,0.0,0.0,0.0,0.0,6.129440308219666,3.6076898757007495e-06,0.0001839642501883101,0.002411263241586246,-3.1238945671921863e-07,-7.612431374036597e-06,0.0,0.0,0.0,0.0,0.0,0.0,0.0,0.0,0.0,0.0,0.0,0.0,0.0,0.0,0.0,0.0,0.0,0.0,0.0,0.0,0.0,0.0,0.0,0.0,0.0,0.0,0.0,0.0,0.0,0.0,0.0,0.0,0.0,0.0,0.0,0.0
19623033084,331,19623033084,map,ego_vehicle,258.3999938964844,149.8390655517578,0.01764051429927349,-0.0003291435921756673,0.0003291901022102104,0.7071114123910857,0.7071019967194664,0.0,0.0,0.0,0.0,0.0,0.0,0.0,0.0,0.0,0.0,0.0,0.0,0.0,0.0,0.0,0.0,0.0,0.0,0.0,0.0,0.0,0.0,0.0,0.0,0.0,0.0,0.0,0.0,0.0,0.0,0.0,0.0,0.0,0.0,0.0,0.0,6.334573746302171,1.744146933936415e-06,-0.00014169128226975983,0.001271388293028812,-1.8740872696063951e-07,-7.493066909964058e-06,0.0,0.0,0.0,0.0,0.0,0.0,0.0,0.0,0.0,0.0,0.0,0.0,0.0,0.0,0.0,0.0,0.0,0.0,0.0,0.0,0.0,0.0,0.0,0.0,0.0,0.0,0.0,0.0,0.0,0.0,0.0,0.0,0.0,0.0,0.0,0.0
19673033085,332,19673033085,map,ego_vehicle,258.3999938964844,150.1617889404297,0.01764211617410183,-0.00034157648843350654,0.00034162388246612984,0.7071114064931638,0.7071019908230249,0.0,0.0,0.0,0.0,0.0,0.0,0.0,0.0,0.0,0.0,0.0,0.0,0.0,0.0,0.0,0.0,0.0,0.0,0.0,0.0,0.0,0.0,0.0,0.0,0.0,0.0,0.0,0.0,0.0,0.0,0.0,0.0,0.0,0.0,0.0,0.0,6.533911705593301,1.716800689300339e-06,-0.00035295827230791776,0.0003451311781306392,-7.115222568055983e-08,-7.441979575622317e-06,0.0,0.0,0.0,0.0,0.0,0.0,0.0,0.0,0.0,0.0,0.0,0.0,0.0,0.0,0.0,0.0,0.0,0.0,0.0,0.0,0.0,0.0,0.0,0.0,0.0,0.0,0.0,0.0,0.0,0.0,0.0,0.0,0.0,0.0,0.0,0.0
19723033086,333,19723033086,map,ego_vehicle,258.3999938964844,150.49435424804688,0.017619304358959198,-0.00034027191029365047,0.00034031532930091276,0.7071114071241658,0.7071019914520013,0.0,0.0,0.0,0.0,0.0,0.0,0.0,0.0,0.0,0.0,0.0,0.0,0.0,0.0,0.0,0.0,0.0,0.0,0.0,0.0,0.0,0.0,0.0,0.0,0.0,0.0,0.0,0.0,0.0,0.0,0.0,0.0,0.0,0.0,0.0,0.0,6.729350567453015,1.7854406778430772e-06,-0.0004626812680941734,-0.00030705850755267683,7.464294251149868e-08,-7.4679890399732875e-06,0.0,0.0,0.0,0.0,0.0,0.0,0.0,0.0,0.0,0.0,0.0,0.0,0.0,0.0,0.0,0.0,0.0,0.0,0.0,0.0,0.0,0.0,0.0,0.0,0.0,0.0,0.0,0.0,0.0,0.0,0.0,0.0,0.0,0.0,0.0,0.0
19773033087,334,19773033087,map,ego_vehicle,258.3999938964844,150.83663940429688,0.017582759261131287,-0.00033045550687439506,0.00033049131873836624,0.7071114117841011,0.7071019961075923,0.0,0.0,0.0,0.0,0.0,0.0,0.0,0.0,0.0,0.0,0.0,0.0,0.0,0.0,0.0,0.0,0.0,0.0,0.0,0.0,0.0,0.0,0.0,0.0,0.0,0.0,0.0,0.0,0.0,0.0,0.0,0.0,0.0,0.0,0.0,0.0,6.9222021109011544,1.8630626661658955e-06,-0.0004902084812169157,-0.0006916090211171798,2.247046138173626e-07,-7.54119945456028e-06,0.0,0.0,0.0,0.0,0.0,0.0,0.0,0.0,0.0,0.0,0.0,0.0,0.0,0.0,0.0,0.0,0.0,0.0,0.0,0.0,0.0,0.0,0.0,0.0,0.0,0.0,0.0,0.0,0.0,0.0,0.0,0.0,0.0,0.0,0.0,0.0
19823033087,335,19823033087,map,ego_vehicle,258.3999938964844,151.18850708007812,0.01754121668636799,-0.0003161670283362577,0.00031620421934914724,0.7071116537082085,0.7071017672466563,0.0,0.0,0.0,0.0,0.0,0.0,0.0,0.0,0.0,0.0,0.0,0.0,0.0,0.0,0.0,0.0,0.0,0.0,0.0,0.0,0.0,0.0,0.0,0.0,0.0,0.0,0.0,0.0,0.0,0.0,0.0,0.0,0.0,0.0,0.0,0.0,7.113376141216473,-3.3261655709080056e-06,-0.0004552545317299478,-0.0008515817138282958,1.746292184523382e-08,-7.641240193087164e-06,0.0,0.0,0.0,0.0,0.0,0.0,0.0,0.0,0.0,0.0,0.0,0.0,0.0,0.0,0.0,0.0,0.0,0.0,0.0,0.0,0.0,0.0,0.0,0.0,0.0,0.0,0.0,0.0,0.0,0.0,0.0,0.0,0.0,0.0,0.0,0.0
19873033088,336,19873033088,map,ego_vehicle,258.3999938964844,151.54991149902344,0.01750139147043228,-0.0003011229791407545,0.00030115542085913666,0.7071116602777372,0.7071017738130955,0.0,0.0,0.0,0.0,0.0,0.0,0.0,0.0,0.0,0.0,0.0,0.0,0.0,0.0,0.0,0.0,0.0,0.0,0.0,0.0,0.0,0.0,0.0,0.0,0.0,0.0,0.0,0.0,0.0,0.0,0.0,0.0,0.0,0.0,0.0,0.0,7.303501606626736,-3.914359602996296e-06,-0.00038492145300819035,-0.0008464047393293851,8.05097741901743e-08,-7.770575866151375e-06,0.0,0.0,0.0,0.0,0.0,0.0,0.0,0.0,0.0,0.0,0.0,0.0,0.0,0.0,0.0,0.0,0.0,0.0,0.0,0.0,0.0,0.0,0.0,0.0,0.0,0.0,0.0,0.0,0.0,0.0,0.0,0.0,0.0,0.0,0.0,0.0
19923033089,337,19923033089,map,ego_vehicle,258.3999938964844,151.92079162597656,0.017467403784394264,-0.0002871749885228827,0.0002872021953741992,0.7071113836139412,0.70710206208793,0.0,0.0,0.0,0.0,0.0,0.0,0.0,0.0,0.0,0.0,0.0,0.0,0.0,0.0,0.0,0.0,0.0,0.0,0.0,0.0,0.0,0.0,0.0,0.0,0.0,0.0,0.0,0.0,0.0,0.0,0.0,0.0,0.0,0.0,0.0,0.0,7.493013859457106,1.8064692667001266e-06,-0.0002955520616559867,-0.000736278997102568,3.712747031768871e-07,-7.909036490735015e-06,0.0,0.0,0.0,0.0,0.0,0.0,0.0,0.0,0.0,0.0,0.0,0.0,0.0,0.0,0.0,0.0,0.0,0.0,0.0,0.0,0.0,0.0,0.0,0.0,0.0,0.0,0.0,0.0,0.0,0.0,0.0,0.0,0.0,0.0,0.0,0.0
19973033090,338,19973033090,map,ego_vehicle,258.3999938964844,152.30113220214844,0.017441272735595703,-0.0002758389677981069,0.00027586321659792894,0.7071113881286153,0.7071020666008355,0.0,0.0,0.0,0.0,0.0,0.0,0.0,0.0,0.0,0.0,0.0,0.0,0.0,0.0,0.0,0.0,0.0,0.0,0.0,0.0,0.0,0.0,0.0,0.0,0.0,0.0,0.0,0.0,0.0,0.0,0.0,0.0,0.0,0.0,0.0,0.0,7.682216644970688,1.8215984701268172e-06,-0.00020171488724985548,-0.0005736896966055841,-7.8553335553795e-08,-8.078329637712208e-06,0.0,0.0,0.0,0.0,0.0,0.0,0.0,0.0,0.0,0.0,0.0,0.0,0.0,0.0,0.0,0.0,0.0,0.0,0.0,0.0,0.0,0.0,0.0,0.0,0.0,0.0,0.0,0.0,0.0,0.0,0.0,0.0,0.0,0.0,0.0,0.0
20023033090,339,20023033090,map,ego_vehicle,258.3999938964844,152.69093322753906,0.017423495650291443,-0.00026758373221052724,0.0002675968946513825,0.7071113913052961,0.7071020697729121,0.0,0.0,0.0,0.0,0.0,0.0,0.0,0.0,0.0,0.0,0.0,0.0,0.0,0.0,0.0,0.0,0.0,0.0,0.0,0.0,0.0,0.0,0.0,0.0,0.0,0.0,0.0,0.0,0.0,0.0,0.0,0.0,0.0,0.0,0.0,0.0,7.871321678867799,1.893176580232116e-06,-0.00011551951582321115,-0.0003983354280789842,2.4456032977652014e-07,-8.244593325166919e-06,0.0,0.0,0.0,0.0,0.0,0.0,0.0,0.0,0.0,0.0,0.0,0.0,0.0,0.0,0.0,0.0,0.0,0.0,0.0,0.0,0.0,0.0,0.0,0.0,0.0,0.0,0.0,0.0,0.0,0.0,0.0,0.0,0.0,0.0,0.0,0.0
20073033091,340,20073033091,map,ego_vehicle,258.3999938964844,153.09017944335938,0.017413271591067314,-0.00026231809401848217,0.00026232582684391023,0.707111204967796,0.7071022600609971,0.0,0.0,0.0,0.0,0.0,0.0,0.0,0.0,0.0,0.0,0.0,0.0,0.0,0.0,0.0,0.0,0.0,0.0,0.0,0.0,0.0,0.0,0.0,0.0,0.0,0.0,0.0,0.0,0.0,0.0,0.0,0.0,0.0,0.0,0.0,0.0,8.06047916483727,5.492590523601258e-06,-4.3304925588640506e-05,-0.0002371010823070176,5.482319789196163e-07,-8.431532921475273e-06,0.0,0.0,0.0,0.0,0.0,0.0,0.0,0.0,0.0,0.0,0.0,0.0,0.0,0.0,0.0,0.0,0.0,0.0,0.0,0.0,0.0,0.0,0.0,0.0,0.0,0.0,0.0,0.0,0.0,0.0,0.0,0.0,0.0,0.0,0.0,0.0
20123033092,341,20123033092,map,ego_vehicle,258.3999938964844,153.49888610839844,0.017409496009349823,-0.0002594853568989201,0.0002595108937053366,0.707110970615599,0.7071024964999849,0.0,0.0,0.0,0.0,0.0,0.0,0.0,0.0,0.0,0.0,0.0,0.0,0.0,0.0,0.0,0.0,0.0,0.0,0.0,0.0,0.0,0.0,0.0,0.0,0.0,0.0,0.0,0.0,0.0,0.0,0.0,0.0,0.0,0.0,0.0,0.0,8.249792099692504,8.398040294013714e-06,1.0082342161289559e-05,-0.00010463974253830667,-9.842585380013684e-08,-8.617784235145637e-06,0.0,0.0,0.0,0.0,0.0,0.0,0.0,0.0,0.0,0.0,0.0,0.0,0.0,0.0,0.0,0.0,0.0,0.0,0.0,0.0,0.0,0.0,0.0,0.0,0.0,0.0,0.0,0.0,0.0,0.0,0.0,0.0,0.0,0.0,0.0,0.0
20173033093,342,20173033093,map,ego_vehicle,258.3999938964844,153.91705322265625,0.017410220578312874,-0.00025872384655446583,0.00025875513459763154,0.7071108296579821,0.7071026380152683,0.0,0.0,0.0,0.0,0.0,0.0,0.0,0.0,0.0,0.0,0.0,0.0,0.0,0.0,0.0,0.0,0.0,0.0,0.0,0.0,0.0,0.0,0.0,0.0,0.0,0.0,0.0,0.0,0.0,0.0,0.0,0.0,0.0,0.0,0.0,0.0,8.439332962683912,6.8355899194413785e-06,4.698868459326933e-05,-7.001493418081976e-06,-2.618575582120219e-07,-8.822281896151195e-06,0.0,0.0,0.0,0.0,0.0,0.0,0.0,0.0,0.0,0.0,0.0,0.0,0.0,0.0,0.0,0.0,0.0,0.0,0.0,0.0,0.0,0.0,0.0,0.0,0.0,0.0,0.0,0.0,0.0,0.0,0.0,0.0,0.0,0.0,0.0,0.0
20223033093,343,20223033093,map,ego_vehicle,258.3999938964844,154.34471130371094,0.0174140352755785,-0.00025872384655446583,0.00025875513459763154,0.7071108296579821,0.7071026380152683,0.0,0.0,0.0,0.0,0.0,0.0,0.0,0.0,0.0,0.0,0.0,0.0,0.0,0.0,0.0,0.0,0.0,0.0,0.0,0.0,0.0,0.0,0.0,0.0,0.0,0.0,0.0,0.0,0.0,0.0,0.0,0.0,0.0,0.0,0.0,0.0,8.629154205910586,5.150381811225882e-07,6.814804071649484e-05,5.725140468731491e-05,-4.005776063001038e-07,-9.018756873773439e-06,0.0,0.0,0.0,0.0,0.0,0.0,0.0,0.0,0.0,0.0,0.0,0.0,0.0,0.0,0.0,0.0,0.0,0.0,0.0,0.0,0.0,0.0,0.0,0.0,0.0,0.0,0.0,0.0,0.0,0.0,0.0,0.0,0.0,0.0,0.0,0.0
20273033094,344,20273033094,map,ego_vehicle,258.3999938964844,154.78187561035156,0.01741952821612358,-0.00026077458919318043,0.00026083474696932194,0.7071100756423171,0.7071033905214746,0.0,0.0,0.0,0.0,0.0,0.0,0.0,0.0,0.0,0.0,0.0,0.0,0.0,0.0,0.0,0.0,0.0,0.0,0.0,0.0,0.0,0.0,0.0,0.0,0.0,0.0,0.0,0.0,0.0,0.0,0.0,0.0,0.0,0.0,0.0,0.0,8.819293976347417,1.2322828185381136e-05,7.522109839208996e-05,9.276350536916799e-05,-4.353631504957407e-07,-9.22992097119299e-06,0.0,0.0,0.0,0.0,0.0,0.0,0.0,0.0,0.0,0.0,0.0,0.0,0.0,0.0,0.0,0.0,0.0,0.0,0.0,0.0,0.0,0.0,0.0,0.0,0.0,0.0,0.0,0.0,0.0,0.0,0.0,0.0,0.0,0.0,0.0,0.0
20323033095,345,20323033095,map,ego_vehicle,258.3999938964844,155.22854614257812,0.017425479367375374,-0.00026266459068144843,0.0002627379651976423,0.707109933702932,0.7071035310580125,0.0,0.0,0.0,0.0,0.0,0.0,0.0,0.0,0.0,0.0,0.0,0.0,0.0,0.0,0.0,0.0,0.0,0.0,0.0,0.0,0.0,0.0,0.0,0.0,0.0,0.0,0.0,0.0,0.0,0.0,0.0,0.0,0.0,0.0,0.0,0.0,9.009777069549338,8.8830196128189e-06,7.202948537096862e-05,0.00010638840102774535,-4.581658701618126e-08,-9.435348194728084e-06,0.0,0.0,0.0,0.0,0.0,0.0,0.0,0.0,0.0,0.0,0.0,0.0,0.0,0.0,0.0,0.0,0.0,0.0,0.0,0.0,0.0,0.0,0.0,0.0,0.0,0.0,0.0,0.0,0.0,0.0,0.0,0.0,0.0,0.0,0.0,0.0
20373033096,346,20373033096,map,ego_vehicle,258.3999938964844,155.68463134765625,0.01743055321276188,-0.0002637977588432551,0.0002638807472237288,0.7071095566512123,0.7071039072655587,0.0,0.0,0.0,0.0,0.0,0.0,0.0,0.0,0.0,0.0,0.0,0.0,0.0,0.0,0.0,0.0,0.0,0.0,0.0,0.0,0.0,0.0,0.0,0.0,0.0,0.0,0.0,0.0,0.0,0.0,0.0,0.0,0.0,0.0,0.0,0.0,9.193004608546218,1.1382021763532905e-05,6.2500311992594e-05,1.3347528422578966e-05,-2.2621848640004173e-07,-9.306285294930736e-06,0.0,0.0,0.0,0.0,0.0,0.0,0.0,0.0,0.0,0.0,0.0,0.0,0.0,0.0,0.0,0.0,0.0,0.0,0.0,0.0,0.0,0.0,0.0,0.0,0.0,0.0,0.0,0.0,0.0,0.0,0.0,0.0,0.0,0.0,0.0,0.0
20423033096,347,20423033096,map,ego_vehicle,258.3999938964844,156.14866638183594,0.01742723397910595,-0.00025907610769984347,0.0002591615083184808,0.7071093230051687,0.7071041444045248,0.0,0.0,0.0,0.0,0.0,0.0,0.0,0.0,0.0,0.0,0.0,0.0,0.0,0.0,0.0,0.0,0.0,0.0,0.0,0.0,0.0,0.0,0.0,0.0,0.0,0.0,0.0,0.0,0.0,0.0,0.0,0.0,0.0,0.0,0.0,0.0,9.330441475246833,1.0374394983523108e-05,4.869711085980821e-05,-0.0005498995277447977,1.1700574677487623e-08,-7.701077606190523e-06,0.0,0.0,0.0,0.0,0.0,0.0,0.0,0.0,0.0,0.0,0.0,0.0,0.0,0.0,0.0,0.0,0.0,0.0,0.0,0.0,0.0,0.0,0.0,0.0,0.0,0.0,0.0,0.0,0.0,0.0,0.0,0.0,0.0,0.0,0.0,0.0
20473033097,348,20473033097,map,ego_vehicle,258.3999938964844,156.61740112304688,0.01740354485809803,-0.0002383810934437593,0.0002384683331336776,0.7071093302867105,0.7071041516840274,0.0,0.0,0.0,0.0,0.0,0.0,0.0,0.0,0.0,0.0,0.0,0.0,0.0,0.0,0.0,0.0,0.0,0.0,0.0,0.0,0.0,0.0,0.0,0.0,0.0,0.0,0.0,0.0,0.0,0.0,0.0,0.0,0.0,0.0,0.0,0.0,9.393977165525543,6.430374179727382e-06,3.402099060963356e-05,-0.0016077218719422264,1.676095212918703e-07,-4.602810646173582e-06,0.0,0.0,0.0,0.0,0.0,0.0,0.0,0.0,0.0,0.0,0.0,0.0,0.0,0.0,0.0,0.0,0.0,0.0,0.0,0.0,0.0,0.0,0.0,0.0,0.0,0.0,0.0,0.0,0.0,0.0,0.0,0.0,0.0,0.0,0.0,0.0
20523033098,349,20523033098,map,ego_vehicle,258.3999938964844,157.08749389648438,0.017354870215058327,-0.00019864211819963672,0.00019871833022549164,0.7071093425750686,0.7071041639641138,0.0,0.0,0.0,0.0,0.0,0.0,0.0,0.0,0.0,0.0,0.0,0.0,0.0,0.0,0.0,0.0,0.0,0.0,0.0,0.0,0.0,0.0,0.0,0.0,0.0,0.0,0.0,0.0,0.0,0.0,0.0,0.0,0.0,0.0,0.0,0.0,9.399171829512342,4.665928290603278e-06,2.2002009961034907e-05,-0.002647874961541104,3.5877049978694267e-07,-1.6557855415425437e-06,0.0,0.0,0.0,0.0,0.0,0.0,0.0,0.0,0.0,0.0,0.0,0.0,0.0,0.0,0.0,0.0,0.0,0.0,0.0,0.0,0.0,0.0,0.0,0.0,0.0,0.0,0.0,0.0,0.0,0.0,0.0,0.0,0.0,0.0,0.0,0.0
20573033099,350,20573033099,map,ego_vehicle,258.3999938964844,157.55670166015625,0.017287349328398705,-0.00014398489341276382,0.00014404665765922775,0.707109355826067,0.7071041772059867,0.0,0.0,0.0,0.0,0.0,0.0,0.0,0.0,0.0,0.0,0.0,0.0,0.0,0.0,0.0,0.0,0.0,0.0,0.0,0.0,0.0,0.0,0.0,0.0,0.0,0.0,0.0,0.0,0.0,0.0,0.0,0.0,0.0,0.0,0.0,0.0,9.367154121676489,3.468758553219466e-06,1.0307490722252902e-05,-0.00331469226757114,-9.18210469373882e-08,5.065956731717864e-07,0.0,0.0,0.0,0.0,0.0,0.0,0.0,0.0,0.0,0.0,0.0,0.0,0.0,0.0,0.0,0.0,0.0,0.0,0.0,0.0,0.0,0.0,0.0,0.0,0.0,0.0,0.0,0.0,0.0,0.0,0.0,0.0,0.0,0.0,0.0,0.0
20623033099,351,20623033099,map,ego_vehicle,258.3999938964844,158.02354431152344,0.01721074990928173,-8.266805597814751e-05,8.271616722075597e-05,0.7071093656602452,0.7071041870329958,0.0,0.0,0.0,0.0,0.0,0.0,0.0,0.0,0.0,0.0,0.0,0.0,0.0,0.0,0.0,0.0,0.0,0.0,0.0,0.0,0.0,0.0,0.0,0.0,0.0,0.0,0.0,0.0,0.0,0.0,0.0,0.0,0.0,0.0,0.0,0.0,9.311776161466035,3.0583386703636684e-06,6.053610945674183e-07,-0.003518231115812901,5.78297358247472e-07,1.987211537241768e-06,0.0,0.0,0.0,0.0,0.0,0.0,0.0,0.0,0.0,0.0,0.0,0.0,0.0,0.0,0.0,0.0,0.0,0.0,0.0,0.0,0.0,0.0,0.0,0.0,0.0,0.0,0.0,0.0,0.0,0.0,0.0,0.0,0.0,0.0,0.0,0.0
20673033100,352,20673033100,map,ego_vehicle,258.3999938964844,158.48716735839844,0.01713479869067669,-2.219468865843283e-05,2.2228088605391654e-05,0.707109370148921,0.7071041915169958,0.0,0.0,0.0,0.0,0.0,0.0,0.0,0.0,0.0,0.0,0.0,0.0,0.0,0.0,0.0,0.0,0.0,0.0,0.0,0.0,0.0,0.0,0.0,0.0,0.0,0.0,0.0,0.0,0.0,0.0,0.0,0.0,0.0,0.0,0.0,0.0,9.24174022701522,3.012702044997268e-06,-6.4995834532912756e-06,-0.0033201603302585344,5.784248556217414e-07,2.945441800584831e-06,0.0,0.0,0.0,0.0,0.0,0.0,0.0,0.0,0.0,0.0,0.0,0.0,0.0,0.0,0.0,0.0,0.0,0.0,0.0,0.0,0.0,0.0,0.0,0.0,0.0,0.0,0.0,0.0,0.0,0.0,0.0,0.0,0.0,0.0,0.0,0.0
20723033101,353,20723033101,map,ego_vehicle,258.3999938964844,158.94699096679688,0.01706678420305252,3.1790877541217093e-05,-3.1766566772700584e-05,0.7071093697847379,0.7071041911506791,0.0,0.0,0.0,0.0,0.0,0.0,0.0,0.0,0.0,0.0,0.0,0.0,0.0,0.0,0.0,0.0,0.0,0.0,0.0,0.0,0.0,0.0,0.0,0.0,0.0,0.0,0.0,0.0,0.0,0.0,0.0,0.0,0.0,0.0,0.0,0.0,9.162608146934474,2.956029746473585e-06,-1.1342772256305322e-05,-0.0028446622803005935,5.28843171297954e-07,3.551755055965602e-06,0.0,0.0,0.0,0.0,0.0,0.0,0.0,0.0,0.0,0.0,0.0,0.0,0.0,0.0,0.0,0.0,0.0,0.0,0.0,0.0,0.0,0.0,0.0,0.0,0.0,0.0,0.0,0.0,0.0,0.0,0.0,0.0,0.0,0.0,0.0,0.0
20773033102,354,20773033102,map,ego_vehicle,258.3999938964844,159.4026641845703,0.017011279240250587,7.56588355966604e-05,-7.564834677261616e-05,0.7071093664517127,0.7071041878176975,0.0,0.0,0.0,0.0,0.0,0.0,0.0,0.0,0.0,0.0,0.0,0.0,0.0,0.0,0.0,0.0,0.0,0.0,0.0,0.0,0.0,0.0,0.0,0.0,0.0,0.0,0.0,0.0,0.0,0.0,0.0,0.0,0.0,0.0,0.0,0.0,9.077950477864915,2.9422586104200523e-06,-1.3331715982436313e-05,-0.002227422162661039,1.1424752077258087e-07,3.912359536907126e-06,0.0,0.0,0.0,0.0,0.0,0.0,0.0,0.0,0.0,0.0,0.0,0.0,0.0,0.0,0.0,0.0,0.0,0.0,0.0,0.0,0.0,0.0,0.0,0.0,0.0,0.0,0.0,0.0,0.0,0.0,0.0,0.0,0.0,0.0,0.0,0.0
20823033102,355,20823033102,map,ego_vehicle,258.3999938964844,159.85397338867188,0.016969889402389526,0.00010807129694678676,-0.00010805773592597104,0.7071093622416927,0.7071041836068197,0.0,0.0,0.0,0.0,0.0,0.0,0.0,0.0,0.0,0.0,0.0,0.0,0.0,0.0,0.0,0.0,0.0,0.0,0.0,0.0,0.0,0.0,0.0,0.0,0.0,0.0,0.0,0.0,0.0,0.0,0.0,0.0,0.0,0.0,0.0,0.0,8.99006748225523,2.6962736020852315e-06,-1.3754085140941942e-05,-0.0015824343251540833,4.116278443646516e-07,4.1174068081077425e-06,0.0,0.0,0.0,0.0,0.0,0.0,0.0,0.0,0.0,0.0,0.0,0.0,0.0,0.0,0.0,0.0,0.0,0.0,0.0,0.0,0.0,0.0,0.0,0.0,0.0,0.0,0.0,0.0,0.0,0.0,0.0,0.0,0.0,0.0,0.0,0.0
20873033103,356,20873033103,map,ego_vehicle,258.3999938964844,160.30262756347656,0.01695341058075428,0.00012469105497203757,-0.00012110933626785699,0.7071097838313476,0.7071037571634408,0.0,0.0,0.0,0.0,0.0,0.0,0.0,0.0,0.0,0.0,0.0,0.0,0.0,0.0,0.0,0.0,0.0,0.0,0.0,0.0,0.0,0.0,0.0,0.0,0.0,0.0,0.0,0.0,0.0,0.0,0.0,0.0,0.0,0.0,0.0,0.0,8.9716835033799,-3.188857624384652e-05,0.00020014360238610444,-0.00036369304032257807,-0.0005055382274741348,8.16649879602584e-05,0.0,0.0,0.0,0.0,0.0,0.0,0.0,0.0,0.0,0.0,0.0,0.0,0.0,0.0,0.0,0.0,0.0,0.0,0.0,0.0,0.0,0.0,0.0,0.0,0.0,0.0,0.0,0.0,0.0,0.0,0.0,0.0,0.0,0.0,0.0,0.0
20923033104,357,20923033104,map,ego_vehicle,258.39996337890625,160.7511749267578,0.01715948060154915,0.00022745143355601952,-0.0001049179523216686,0.7071104925927737,0.7071030253953617,0.0,0.0,0.0,0.0,0.0,0.0,0.0,0.0,0.0,0.0,0.0,0.0,0.0,0.0,0.0,0.0,0.0,0.0,0.0,0.0,0.0,0.0,0.0,0.0,0.0,0.0,0.0,0.0,0.0,0.0,0.0,0.0,0.0,0.0,0.0,0.0,8.96806181313252,-0.001207868382995175,0.006909485205633283,-0.003812845912146169,0.0017634594493231546,-0.00014420583303748893,0.0,0.0,0.0,0.0,0.0,0.0,0.0,0.0,0.0,0.0,0.0,0.0,0.0,0.0,0.0,0.0,0.0,0.0,0.0,0.0,0.0,0.0,0.0,0.0,0.0,0.0,0.0,0.0,0.0,0.0,0.0,0.0,0.0,0.0,0.0,0.0
20973033105,358,20973033105,map,ego_vehicle,258.4048156738281,161.1991729736328,0.01763448677957058,0.00032841125042797634,-0.0001837369523955505,0.7059721051674108,0.7082395393595851,0.0,0.0,0.0,0.0,0.0,0.0,0.0,0.0,0.0,0.0,0.0,0.0,0.0,0.0,0.0,0.0,0.0,0.0,0.0,0.0,0.0,0.0,0.0,0.0,0.0,0.0,0.0,0.0,0.0,0.0,0.0,0.0,0.0,0.0,0.0,0.0,8.945698417170009,-0.20697705465914273,0.015378020365576586,-0.007810004417969138,-0.0014922793002481206,-0.11714679713526926,0.0,0.0,0.0,0.0,0.0,0.0,0.0,0.0,0.0,0.0,0.0,0.0,0.0,0.0,0.0,0.0,0.0,0.0,0.0,0.0,0.0,0.0,0.0,0.0,0.0,0.0,0.0,0.0,0.0,0.0,0.0,0.0,0.0,0.0,0.0,0.0
21023033105,359,21023033105,map,ego_vehicle,258.4194030761719,161.64605712890625,0.019322261214256287,0.0007299492412709035,-0.0005515202149304823,0.7030238575339494,0.7111656760120266,0.0,0.0,0.0,0.0,0.0,0.0,0.0,0.0,0.0,0.0,0.0,0.0,0.0,0.0,0.0,0.0,0.0,0.0,0.0,0.0,0.0,0.0,0.0,0.0,0.0,0.0,0.0,0.0,0.0,0.0,0.0,0.0,0.0,0.0,0.0,0.0,8.918185564077346,-0.33620169215504087,0.062210348253459585,-0.03236886715952849,0.001117849904141801,-0.18935027080668626,0.0,0.0,0.0,0.0,0.0,0.0,0.0,0.0,0.0,0.0,0.0,0.0,0.0,0.0,0.0,0.0,0.0,0.0,0.0,0.0,0.0,0.0,0.0,0.0,0.0,0.0,0.0,0.0,0.0,0.0,0.0,0.0,0.0,0.0,0.0,0.0
21073033106,360,21073033106,map,ego_vehicle,258.4413757324219,162.09219360351562,0.022976970300078392,0.001288784685949869,-0.001640207988523711,0.6993319191696512,0.7147940371759408,0.0,0.0,0.0,0.0,0.0,0.0,0.0,0.0,0.0,0.0,0.0,0.0,0.0,0.0,0.0,0.0,0.0,0.0,0.0,0.0,0.0,0.0,0.0,0.0,0.0,0.0,0.0,0.0,0.0,0.0,0.0,0.0,0.0,0.0,0.0,0.0,8.897378039646872,-0.3775045355380976,0.12080330870127191,-0.05611342834635004,0.02437696831895829,-0.2152303376478583,0.0,0.0,0.0,0.0,0.0,0.0,0.0,0.0,0.0,0.0,0.0,0.0,0.0,0.0,0.0,0.0,0.0,0.0,0.0,0.0,0.0,0.0,0.0,0.0,0.0,0.0,0.0,0.0,0.0,0.0,0.0,0.0,0.0,0.0,0.0,0.0
21123033107,361,21123033107,map,ego_vehicle,258.4734802246094,162.5364227294922,0.029439639300107956,0.0024034601703570983,-0.003399512147079068,0.6942605358116543,0.719711730563624,0.0,0.0,0.0,0.0,0.0,0.0,0.0,0.0,0.0,0.0,0.0,0.0,0.0,0.0,0.0,0.0,0.0,0.0,0.0,0.0,0.0,0.0,0.0,0.0,0.0,0.0,0.0,0.0,0.0,0.0,0.0,0.0,0.0,0.0,0.0,0.0,8.825652605573337,-0.5843769541023252,0.22130832650876844,-0.0999374168816636,0.009990236094322084,-0.335927411477069,0.0,0.0,0.0,0.0,0.0,0.0,0.0,0.0,0.0,0.0,0.0,0.0,0.0,0.0,0.0,0.0,0.0,0.0,0.0,0.0,0.0,0.0,0.0,0.0,0.0,0.0,0.0,0.0,0.0,0.0,0.0,0.0,0.0,0.0,0.0,0.0
21173033108,362,21173033108,map,ego_vehicle,258.5196838378906,162.97715759277344,0.039324626326560974,0.004274210341170556,-0.0057965862676877975,0.6873350666308634,0.7263047823697343,0.0,0.0,0.0,0.0,0.0,0.0,0.0,0.0,0.0,0.0,0.0,0.0,0.0,0.0,0.0,0.0,0.0,0.0,0.0,0.0,0.0,0.0,0.0,0.0,0.0,0.0,0.0,0.0,0.0,0.0,0.0,0.0,0.0,0.0,0.0,0.0,8.767687818900294,-0.7049576491158616,0.31398765207389795,-0.13354199078698886,0.018088972427388397,-0.4038385519063076,0.0,0.0,0.0,0.0,0.0,0.0,0.0,0.0,0.0,0.0,0.0,0.0,0.0,0.0,0.0,0.0,0.0,0.0,0.0,0.0,0.0,0.0,0.0,0.0,0.0,0.0,0.0,0.0,0.0,0.0,0.0,0.0,0.0,0.0,0.0,0.0
21223033108,363,21223033108,map,ego_vehicle,258.57763671875,163.415283203125,0.05198366194963455,0.006412989982067607,-0.008802446079304816,0.6796597132170952,0.7334467020391916,0.0,0.0,0.0,0.0,0.0,0.0,0.0,0.0,0.0,0.0,0.0,0.0,0.0,0.0,0.0,0.0,0.0,0.0,0.0,0.0,0.0,0.0,0.0,0.0,0.0,0.0,0.0,0.0,0.0,0.0,0.0,0.0,0.0,0.0,0.0,0.0,8.738792839144688,-0.7387087855017065,0.3716914538484671,-0.1399140614258158,0.04602660168794484,-0.42462249355404486,0.0,0.0,0.0,0.0,0.0,0.0,0.0,0.0,0.0,0.0,0.0,0.0,0.0,0.0,0.0,0.0,0.0,0.0,0.0,0.0,0.0,0.0,0.0,0.0,0.0,0.0,0.0,0.0,0.0,0.0,0.0,0.0,0.0,0.0,0.0,0.0
21273033109,364,21273033109,map,ego_vehicle,258.6452941894531,163.85064697265625,0.06346201151609421,0.007785461089341607,-0.011420109949092344,0.6718007701409583,0.7406029252726403,0.0,0.0,0.0,0.0,0.0,0.0,0.0,0.0,0.0,0.0,0.0,0.0,0.0,0.0,0.0,0.0,0.0,0.0,0.0,0.0,0.0,0.0,0.0,0.0,0.0,0.0,0.0,0.0,0.0,0.0,0.0,0.0,0.0,0.0,0.0,0.0,8.730585959611103,-0.7375726312913027,0.3272676813084623,-0.09450287049270703,0.028127554258171126,-0.42549740855116314,0.0,0.0,0.0,0.0,0.0,0.0,0.0,0.0,0.0,0.0,0.0,0.0,0.0,0.0,0.0,0.0,0.0,0.0,0.0,0.0,0.0,0.0,0.0,0.0,0.0,0.0,0.0,0.0,0.0,0.0,0.0,0.0,0.0,0.0,0.0,0.0
21323033110,365,21323033110,map,ego_vehicle,258.7248840332031,164.28134155273438,0.0723416730761528,0.00874013293955232,-0.012984309594047767,0.6629975057680718,0.7484579648356215,0.0,0.0,0.0,0.0,0.0,0.0,0.0,0.0,0.0,0.0,0.0,0.0,0.0,0.0,0.0,0.0,0.0,0.0,0.0,0.0,0.0,0.0,0.0,0.0,0.0,0.0,0.0,0.0,0.0,0.0,0.0,0.0,0.0,0.0,0.0,0.0,8.672582107843839,-0.8875292902044609,0.27671947049590107,-0.05799245494296907,0.0043206594973822145,-0.5107979589236967,0.0,0.0,0.0,0.0,0.0,0.0,0.0,0.0,0.0,0.0,0.0,0.0,0.0,0.0,0.0,0.0,0.0,0.0,0.0,0.0,0.0,0.0,0.0,0.0,0.0,0.0,0.0,0.0,0.0,0.0,0.0,0.0,0.0,0.0,0.0,0.0
21373033110,366,21373033110,map,ego_vehicle,258.81854248046875,164.6999053955078,0.07871274650096893,0.009364491448397905,-0.013678149702336396,0.6527236969037337,0.7574146750763128,0.0,0.0,0.0,0.0,0.0,0.0,0.0,0.0,0.0,0.0,0.0,0.0,0.0,0.0,0.0,0.0,0.0,0.0,0.0,0.0,0.0,0.0,0.0,0.0,0.0,0.0,0.0,0.0,0.0,0.0,0.0,0.0,0.0,0.0,0.0,0.0,8.346128194399126,-0.9569997051377728,0.21984837810519503,-0.028702000185895818,-0.0043247130158148295,-0.5561942694442147,0.0,0.0,0.0,0.0,0.0,0.0,0.0,0.0,0.0,0.0,0.0,0.0,0.0,0.0,0.0,0.0,0.0,0.0,0.0,0.0,0.0,0.0,0.0,0.0,0.0,0.0,0.0,0.0,0.0,0.0,0.0,0.0,0.0,0.0,0.0,0.0
21423033111,367,21423033111,map,ego_vehicle,258.9208984375,165.09207153320312,0.08270291984081268,0.00945759681520127,-0.014013787853854778,0.6420943996771297,0.7664391362109159,0.0,0.0,0.0,0.0,0.0,0.0,0.0,0.0,0.0,0.0,0.0,0.0,0.0,0.0,0.0,0.0,0.0,0.0,0.0,0.0,0.0,0.0,0.0,0.0,0.0,0.0,0.0,0.0,0.0,0.0,0.0,0.0,0.0,0.0,0.0,0.0,7.886933043034132,-0.9724165712836483,0.17323317814362182,-0.00394626586149561,-0.0025311827327143973,-0.555461800275902,0.0,0.0,0.0,0.0,0.0,0.0,0.0,0.0,0.0,0.0,0.0,0.0,0.0,0.0,0.0,0.0,0.0,0.0,0.0,0.0,0.0,0.0,0.0,0.0,0.0,0.0,0.0,0.0,0.0,0.0,0.0,0.0,0.0,0.0,0.0,0.0
21473033112,368,21473033112,map,ego_vehicle,259.0303649902344,165.45957946777344,0.08541745692491531,0.00929901201232999,-0.013763030076369295,0.6315399642743657,0.7751653893867065,0.0,0.0,0.0,0.0,0.0,0.0,0.0,0.0,0.0,0.0,0.0,0.0,0.0,0.0,0.0,0.0,0.0,0.0,0.0,0.0,0.0,0.0,0.0,0.0,0.0,0.0,0.0,0.0,0.0,0.0,0.0,0.0,0.0,0.0,0.0,0.0,7.48101873801506,-0.9825098644553103,0.1449233267740374,0.01818134874710592,-0.01780556423372813,-0.5409657151198963,0.0,0.0,0.0,0.0,0.0,0.0,0.0,0.0,0.0,0.0,0.0,0.0,0.0,0.0,0.0,0.0,0.0,0.0,0.0,0.0,0.0,0.0,0.0,0.0,0.0,0.0,0.0,0.0,0.0,0.0,0.0,0.0,0.0,0.0,0.0,0.0
21523033113,369,21523033113,map,ego_vehicle,259.1486511230469,165.80282592773438,0.08798562735319138,0.008854386709252331,-0.013036878424607398,0.6203740177039585,0.7841477652807495,0.0,0.0,0.0,0.0,0.0,0.0,0.0,0.0,0.0,0.0,0.0,0.0,0.0,0.0,0.0,0.0,0.0,0.0,0.0,0.0,0.0,0.0,0.0,0.0,0.0,0.0,0.0,0.0,0.0,0.0,0.0,0.0,0.0,0.0,0.0,0.0,7.066953472127501,-1.118408625815621,0.13318894479136,0.03367385146377554,-0.0177632595036933,-0.6014360500424808,0.0,0.0,0.0,0.0,0.0,0.0,0.0,0.0,0.0,0.0,0.0,0.0,0.0,0.0,0.0,0.0,0.0,0.0,0.0,0.0,0.0,0.0,0.0,0.0,0.0,0.0,0.0,0.0,0.0,0.0,0.0,0.0,0.0,0.0,0.0,0.0
21573033113,370,21573033113,map,ego_vehicle,259.27716064453125,166.12152099609375,0.09152604639530182,0.008147727058370694,-0.011848518523687979,0.6081553797836955,0.793687760515888,0.0,0.0,0.0,0.0,0.0,0.0,0.0,0.0,0.0,0.0,0.0,0.0,0.0,0.0,0.0,0.0,0.0,0.0,0.0,0.0,0.0,0.0,0.0,0.0,0.0,0.0,0.0,0.0,0.0,0.0,0.0,0.0,0.0,0.0,0.0,0.0,6.700703745344167,-1.208056829359437,0.1485888553671523,0.05761509750007245,-0.027806616299086758,-0.6265069153864322,0.0,0.0,0.0,0.0,0.0,0.0,0.0,0.0,0.0,0.0,0.0,0.0,0.0,0.0,0.0,0.0,0.0,0.0,0.0,0.0,0.0,0.0,0.0,0.0,0.0,0.0,0.0,0.0,0.0,0.0,0.0,0.0,0.0,0.0,0.0,0.0
21623033114,371,21623033114,map,ego_vehicle,259.41278076171875,166.4191436767578,0.09674771875143051,0.007355979537678163,-0.01010388248676742,0.5957210640660655,0.8030941507393324,0.0,0.0,0.0,0.0,0.0,0.0,0.0,0.0,0.0,0.0,0.0,0.0,0.0,0.0,0.0,0.0,0.0,0.0,0.0,0.0,0.0,0.0,0.0,0.0,0.0,0.0,0.0,0.0,0.0,0.0,0.0,0.0,0.0,0.0,0.0,0.0,6.388317220636769,-1.2356303044235302,0.16466033674773722,0.07366279440261794,-0.046917645454414916,-0.6186900049548316,0.0,0.0,0.0,0.0,0.0,0.0,0.0,0.0,0.0,0.0,0.0,0.0,0.0,0.0,0.0,0.0,0.0,0.0,0.0,0.0,0.0,0.0,0.0,0.0,0.0,0.0,0.0,0.0,0.0,0.0,0.0,0.0,0.0,0.0,0.0,0.0
21673033115,372,21673033115,map,ego_vehicle,259.55572509765625,166.6955108642578,0.10410268604755402,0.0063357654582992555,-0.008033284029219876,0.5825847653588865,0.8127055528267876,0.0,0.0,0.0,0.0,0.0,0.0,0.0,0.0,0.0,0.0,0.0,0.0,0.0,0.0,0.0,0.0,0.0,0.0,0.0,0.0,0.0,0.0,0.0,0.0,0.0,0.0,0.0,0.0,0.0,0.0,0.0,0.0,0.0,0.0,0.0,0.0,6.046591657885468,-1.3615324853417543,0.1830196379632207,0.08222980912237456,-0.053788888188874374,-0.6769113003368442,0.0,0.0,0.0,0.0,0.0,0.0,0.0,0.0,0.0,0.0,0.0,0.0,0.0,0.0,0.0,0.0,0.0,0.0,0.0,0.0,0.0,0.0,0.0,0.0,0.0,0.0,0.0,0.0,0.0,0.0,0.0,0.0,0.0,0.0,0.0,0.0
21723033116,373,21723033116,map,ego_vehicle,259.7065734863281,166.95033264160156,0.11333806812763214,0.005128183138109425,-0.005864591668084602,0.5684195719675336,0.8227019499834156,0.0,0.0,0.0,0.0,0.0,0.0,0.0,0.0,0.0,0.0,0.0,0.0,0.0,0.0,0.0,0.0,0.0,0.0,0.0,0.0,0.0,0.0,0.0,0.0,0.0,0.0,0.0,0.0,0.0,0.0,0.0,0.0,0.0,0.0,0.0,0.0,5.762073643763369,-1.42286911132269,0.1876250460722329,0.08743037184243245,-0.033130106789992425,-0.6988741235306186,0.0,0.0,0.0,0.0,0.0,0.0,0.0,0.0,0.0,0.0,0.0,0.0,0.0,0.0,0.0,0.0,0.0,0.0,0.0,0.0,0.0,0.0,0.0,0.0,0.0,0.0,0.0,0.0,0.0,0.0,0.0,0.0,0.0,0.0,0.0,0.0
21773033116,374,21773033116,map,ego_vehicle,259.8632507324219,167.18788146972656,0.12245309352874756,0.0032518529480239306,-0.004609884169029966,0.5540586335319192,0.8324585305161424,0.0,0.0,0.0,0.0,0.0,0.0,0.0,0.0,0.0,0.0,0.0,0.0,0.0,0.0,0.0,0.0,0.0,0.0,0.0,0.0,0.0,0.0,0.0,0.0,0.0,0.0,0.0,0.0,0.0,0.0,0.0,0.0,0.0,0.0,0.0,0.0,5.5301409071386285,-1.4131053472148898,0.1833802554377759,0.08890151035097063,0.012340424781749272,-0.6894854820026806,0.0,0.0,0.0,0.0,0.0,0.0,0.0,0.0,0.0,0.0,0.0,0.0,0.0,0.0,0.0,0.0,0.0,0.0,0.0,0.0,0.0,0.0,0.0,0.0,0.0,0.0,0.0,0.0,0.0,0.0,0.0,0.0,0.0,0.0,0.0,0.0
21823033117,375,21823033117,map,ego_vehicle,260.0234069824219,167.41075134277344,0.13095632195472717,0.001135364077057688,-0.004035432419237736,0.5398601169575766,0.841744308179244,0.0,0.0,0.0,0.0,0.0,0.0,0.0,0.0,0.0,0.0,0.0,0.0,0.0,0.0,0.0,0.0,0.0,0.0,0.0,0.0,0.0,0.0,0.0,0.0,0.0,0.0,0.0,0.0,0.0,0.0,0.0,0.0,0.0,0.0,0.0,0.0,5.323880467641776,-1.380406390289216,0.1771363586552201,0.07793378906656208,0.03144716375100888,-0.6712546796024886,0.0,0.0,0.0,0.0,0.0,0.0,0.0,0.0,0.0,0.0,0.0,0.0,0.0,0.0,0.0,0.0,0.0,0.0,0.0,0.0,0.0,0.0,0.0,0.0,0.0,0.0,0.0,0.0,0.0,0.0,0.0,0.0,0.0,0.0,0.0,0.0
21873033118,376,21873033118,map,ego_vehicle,260.187255859375,167.6168975830078,0.13885807991027832,-0.0009426666556363044,-0.003859361625398788,0.5250881057061059,0.8510385995672548,0.0,0.0,0.0,0.0,0.0,0.0,0.0,0.0,0.0,0.0,0.0,0.0,0.0,0.0,0.0,0.0,0.0,0.0,0.0,0.0,0.0,0.0,0.0,0.0,0.0,0.0,0.0,0.0,0.0,0.0,0.0,0.0,0.0,0.0,0.0,0.0,5.053450170771354,-1.468489263871593,0.17611956604332188,0.06650662255984442,0.03790405607055484,-0.7215072643707661,0.0,0.0,0.0,0.0,0.0,0.0,0.0,0.0,0.0,0.0,0.0,0.0,0.0,0.0,0.0,0.0,0.0,0.0,0.0,0.0,0.0,0.0,0.0,0.0,0.0,0.0,0.0,0.0,0.0,0.0,0.0,0.0,0.0,0.0,0.0,0.0
21923033119,377,21923033119,map,ego_vehicle,260.3551025390625,167.8051300048828,0.1455598920583725,-0.0025062761166392807,-0.0041429337088526395,0.5093942833431884,0.8605196213786125,0.0,0.0,0.0,0.0,0.0,0.0,0.0,0.0,0.0,0.0,0.0,0.0,0.0,0.0,0.0,0.0,0.0,0.0,0.0,0.0,0.0,0.0,0.0,0.0,0.0,0.0,0.0,0.0,0.0,0.0,0.0,0.0,0.0,0.0,0.0,0.0,4.8226887760938055,-1.508455292882088,0.16766777563637,0.0325928951832584,0.04834394714928809,-0.7348597548651781,0.0,0.0,0.0,0.0,0.0,0.0,0.0,0.0,0.0,0.0,0.0,0.0,0.0,0.0,0.0,0.0,0.0,0.0,0.0,0.0,0.0,0.0,0.0,0.0,0.0,0.0,0.0,0.0,0.0,0.0,0.0,0.0,0.0,0.0,0.0,0.0
21973033119,378,21973033119,map,ego_vehicle,260.5253601074219,167.97865295410156,0.15110044181346893,-0.003636853534413324,-0.0049369519553441234,0.4936613165285189,0.8696326260928171,0.0,0.0,0.0,0.0,0.0,0.0,0.0,0.0,0.0,0.0,0.0,0.0,0.0,0.0,0.0,0.0,0.0,0.0,0.0,0.0,0.0,0.0,0.0,0.0,0.0,0.0,0.0,0.0,0.0,0.0,0.0,0.0,0.0,0.0,0.0,0.0,4.633363337748341,-1.5045361977664395,0.1625087701700986,0.010745980874443124,0.04906119468749527,-0.7209302905206004,0.0,0.0,0.0,0.0,0.0,0.0,0.0,0.0,0.0,0.0,0.0,0.0,0.0,0.0,0.0,0.0,0.0,0.0,0.0,0.0,0.0,0.0,0.0,0.0,0.0,0.0,0.0,0.0,0.0,0.0,0.0,0.0,0.0,0.0,0.0,0.0
22023033120,379,22023033120,map,ego_vehicle,260.6966857910156,168.13909912109375,0.15548528730869293,-0.004269305975698201,-0.005807854919612075,0.478158554769887,0.8782439515010003,0.0,0.0,0.0,0.0,0.0,0.0,0.0,0.0,0.0,0.0,0.0,0.0,0.0,0.0,0.0,0.0,0.0,0.0,0.0,0.0,0.0,0.0,0.0,0.0,0.0,0.0,0.0,0.0,0.0,0.0,0.0,0.0,0.0,0.0,0.0,0.0,4.46445291664778,-1.4867400653045897,0.1500184505978827,-0.005813378453277091,0.03787319669142355,-0.7012608484995476,0.0,0.0,0.0,0.0,0.0,0.0,0.0,0.0,0.0,0.0,0.0,0.0,0.0,0.0,0.0,0.0,0.0,0.0,0.0,0.0,0.0,0.0,0.0,0.0,0.0,0.0,0.0,0.0,0.0,0.0,0.0,0.0,0.0,0.0,0.0,0.0
22073033121,380,22073033121,map,ego_vehicle,260.86865234375,168.2843780517578,0.15870489180088043,-0.00434908692534418,-0.006482747352109018,0.46223133796832266,0.8867250135355936,0.0,0.0,0.0,0.0,0.0,0.0,0.0,0.0,0.0,0.0,0.0,0.0,0.0,0.0,0.0,0.0,0.0,0.0,0.0,0.0,0.0,0.0,0.0,0.0,0.0,0.0,0.0,0.0,0.0,0.0,0.0,0.0,0.0,0.0,0.0,0.0,4.224690585111794,-1.5720525528576266,0.1299161762445461,-0.021346786179963304,0.017001528852903385,-0.7395288088883051,0.0,0.0,0.0,0.0,0.0,0.0,0.0,0.0,0.0,0.0,0.0,0.0,0.0,0.0,0.0,0.0,0.0,0.0,0.0,0.0,0.0,0.0,0.0,0.0,0.0,0.0,0.0,0.0,0.0,0.0,0.0,0.0,0.0,0.0,0.0,0.0
22123033122,381,22123033122,map,ego_vehicle,261.04144287109375,168.4124755859375,0.1608545482158661,-0.003987335267640215,-0.0068554065751704205,0.44558924142322603,0.8952023974979213,0.0,0.0,0.0,0.0,0.0,0.0,0.0,0.0,0.0,0.0,0.0,0.0,0.0,0.0,0.0,0.0,0.0,0.0,0.0,0.0,0.0,0.0,0.0,0.0,0.0,0.0,0.0,0.0,0.0,0.0,0.0,0.0,0.0,0.0,0.0,0.0,4.028533425691562,-1.6199923629808741,0.10744401449831181,-0.02719218134311884,0.0013861723565315037,-0.7470051010164844,0.0,0.0,0.0,0.0,0.0,0.0,0.0,0.0,0.0,0.0,0.0,0.0,0.0,0.0,0.0,0.0,0.0,0.0,0.0,0.0,0.0,0.0,0.0,0.0,0.0,0.0,0.0,0.0,0.0,0.0,0.0,0.0,0.0,0.0,0.0,0.0
22173033122,382,22173033122,map,ego_vehicle,261.2140808105469,168.52706909179688,0.16216222941875458,-0.0034742663248338505,-0.006989136910282575,0.4289512270240379,0.9032939312722773,0.0,0.0,0.0,0.0,0.0,0.0,0.0,0.0,0.0,0.0,0.0,0.0,0.0,0.0,0.0,0.0,0.0,0.0,0.0,0.0,0.0,0.0,0.0,0.0,0.0,0.0,0.0,0.0,0.0,0.0,0.0,0.0,0.0,0.0,0.0,0.0,3.8769847358718943,-1.6166553254182243,0.08783429697641436,-0.025615388160115576,-0.006665164520506415,-0.7338692586767503,0.0,0.0,0.0,0.0,0.0,0.0,0.0,0.0,0.0,0.0,0.0,0.0,0.0,0.0,0.0,0.0,0.0,0.0,0.0,0.0,0.0,0.0,0.0,0.0,0.0,0.0,0.0,0.0,0.0,0.0,0.0,0.0,0.0,0.0,0.0,0.0
22223033123,383,22223033123,map,ego_vehicle,261.3857421875,168.6302490234375,0.1628982275724411,-0.002981856058481292,-0.006966243151546913,0.4125485082645686,0.9109041158758034,0.0,0.0,0.0,0.0,0.0,0.0,0.0,0.0,0.0,0.0,0.0,0.0,0.0,0.0,0.0,0.0,0.0,0.0,0.0,0.0,0.0,0.0,0.0,0.0,0.0,0.0,0.0,0.0,0.0,0.0,0.0,0.0,0.0,0.0,0.0,0.0,3.7449975160228037,-1.5902941560850263,0.072704475070001,-0.02118664073288167,-0.010409516478144133,-0.7156778710606916,0.0,0.0,0.0,0.0,0.0,0.0,0.0,0.0,0.0,0.0,0.0,0.0,0.0,0.0,0.0,0.0,0.0,0.0,0.0,0.0,0.0,0.0,0.0,0.0,0.0,0.0,0.0,0.0,0.0,0.0,0.0,0.0,0.0,0.0,0.0,0.0
22273033124,384,22273033124,map,ego_vehicle,261.5557556152344,168.7233123779297,0.16329874098300934,-0.0025666343401594283,-0.006838532084717481,0.39644759040099287,0.9180282974572934,0.0,0.0,0.0,0.0,0.0,0.0,0.0,0.0,0.0,0.0,0.0,0.0,0.0,0.0,0.0,0.0,0.0,0.0,0.0,0.0,0.0,0.0,0.0,0.0,0.0,0.0,0.0,0.0,0.0,0.0,0.0,0.0,0.0,0.0,0.0,0.0,3.6227645071841126,-1.5551193115883366,0.06204514158253883,-0.016551521207707247,-0.012175766524976716,-0.6964255466453726,0.0,0.0,0.0,0.0,0.0,0.0,0.0,0.0,0.0,0.0,0.0,0.0,0.0,0.0,0.0,0.0,0.0,0.0,0.0,0.0,0.0,0.0,0.0,0.0,0.0,0.0,0.0,0.0,0.0,0.0,0.0,0.0,0.0,0.0,0.0,0.0
22323033125,385,22323033125,map,ego_vehicle,261.72332763671875,168.80734252929688,0.16407307982444763,-0.0016379509578008811,-0.006594775894278881,0.3807250000989771,0.9246633443298149,0.0,0.0,0.0,0.0,0.0,0.0,0.0,0.0,0.0,0.0,0.0,0.0,0.0,0.0,0.0,0.0,0.0,0.0,0.0,0.0,0.0,0.0,0.0,0.0,0.0,0.0,0.0,0.0,0.0,0.0,0.0,0.0,0.0,0.0,0.0,0.0,3.495940058276545,-1.521821180360574,0.0761621708043199,-0.04408702978841854,-0.02867347523390755,-0.6735695658010128,0.0,0.0,0.0,0.0,0.0,0.0,0.0,0.0,0.0,0.0,0.0,0.0,0.0,0.0,0.0,0.0,0.0,0.0,0.0,0.0,0.0,0.0,0.0,0.0,0.0,0.0,0.0,0.0,0.0,0.0,0.0,0.0,0.0,0.0,0.0,0.0
22373033125,386,22373033125,map,ego_vehicle,261.8883056640625,168.88259887695312,0.1654464453458786,-0.0003612293199291563,-0.006340494552487854,0.3653664501808096,0.9308421051523627,0.0,0.0,0.0,0.0,0.0,0.0,0.0,0.0,0.0,0.0,0.0,0.0,0.0,0.0,0.0,0.0,0.0,0.0,0.0,0.0,0.0,0.0,0.0,0.0,0.0,0.0,0.0,0.0,0.0,0.0,0.0,0.0,0.0,0.0,0.0,0.0,3.377295755996435,-1.4896188611954795,0.0828196340151435,-0.04782487208569643,-0.0285081865569707,-0.6544179754539259,0.0,0.0,0.0,0.0,0.0,0.0,0.0,0.0,0.0,0.0,0.0,0.0,0.0,0.0,0.0,0.0,0.0,0.0,0.0,0.0,0.0,0.0,0.0,0.0,0.0,0.0,0.0,0.0,0.0,0.0,0.0,0.0,0.0,0.0,0.0,0.0
22423033126,387,22423033126,map,ego_vehicle,262.0506896972656,168.94960021972656,0.16709767282009125,0.0007182368743456863,-0.0061564957666827205,0.350325239598351,0.9366076063090802,0.0,0.0,0.0,0.0,0.0,0.0,0.0,0.0,0.0,0.0,0.0,0.0,0.0,0.0,0.0,0.0,0.0,0.0,0.0,0.0,0.0,0.0,0.0,0.0,0.0,0.0,0.0,0.0,0.0,0.0,0.0,0.0,0.0,0.0,0.0,0.0,3.2688409509062675,-1.4512502008628236,0.08209395970230342,-0.03672259874840083,-0.02079954402665485,-0.6371107573197735,0.0,0.0,0.0,0.0,0.0,0.0,0.0,0.0,0.0,0.0,0.0,0.0,0.0,0.0,0.0,0.0,0.0,0.0,0.0,0.0,0.0,0.0,0.0,0.0,0.0,0.0,0.0,0.0,0.0,0.0,0.0,0.0,0.0,0.0,0.0,0.0
22473033127,388,22473033127,map,ego_vehicle,262.2102355957031,169.00900268554688,0.16870062053203583,0.001322743491710408,-0.006041851141018497,0.3355903195432541,0.9419877301819284,0.0,0.0,0.0,0.0,0.0,0.0,0.0,0.0,0.0,0.0,0.0,0.0,0.0,0.0,0.0,0.0,0.0,0.0,0.0,0.0,0.0,0.0,0.0,0.0,0.0,0.0,0.0,0.0,0.0,0.0,0.0,0.0,0.0,0.0,0.0,0.0,3.168921112316311,-1.4084617072703973,0.07414306554413791,-0.017301971914864454,-0.0111537659730912,-0.6206870428772548,0.0,0.0,0.0,0.0,0.0,0.0,0.0,0.0,0.0,0.0,0.0,0.0,0.0,0.0,0.0,0.0,0.0,0.0,0.0,0.0,0.0,0.0,0.0,0.0,0.0,0.0,0.0,0.0,0.0,0.0,0.0,0.0,0.0,0.0,0.0,0.0
22523033128,389,22523033128,map,ego_vehicle,262.3668518066406,169.06146240234375,0.1700746715068817,0.0014762274372177248,-0.0059522718478462735,0.32116753975162093,0.9470025357000339,0.0,0.0,0.0,0.0,0.0,0.0,0.0,0.0,0.0,0.0,0.0,0.0,0.0,0.0,0.0,0.0,0.0,0.0,0.0,0.0,0.0,0.0,0.0,0.0,0.0,0.0,0.0,0.0,0.0,0.0,0.0,0.0,0.0,0.0,0.0,0.0,3.0739111343436827,-1.365237708170031,0.06487293883356307,-0.00246870715816547,-0.005621966350670898,-0.6040771734745396,0.0,0.0,0.0,0.0,0.0,0.0,0.0,0.0,0.0,0.0,0.0,0.0,0.0,0.0,0.0,0.0,0.0,0.0,0.0,0.0,0.0,0.0,0.0,0.0,0.0,0.0,0.0,0.0,0.0,0.0,0.0,0.0,0.0,0.0,0.0,0.0
22573033128,390,22573033128,map,ego_vehicle,262.5202331542969,169.10752868652344,0.17119093239307404,0.0013553048381165509,-0.0058471990831634865,0.3070698325899853,0.9516680573208476,0.0,0.0,0.0,0.0,0.0,0.0,0.0,0.0,0.0,0.0,0.0,0.0,0.0,0.0,0.0,0.0,0.0,0.0,0.0,0.0,0.0,0.0,0.0,0.0,0.0,0.0,0.0,0.0,0.0,0.0,0.0,0.0,0.0,0.0,0.0,0.0,2.9812861180336676,-1.3247524247758744,0.05640018439601564,0.0056340051911845474,-0.003958201192427829,-0.5873274881145952,0.0,0.0,0.0,0.0,0.0,0.0,0.0,0.0,0.0,0.0,0.0,0.0,0.0,0.0,0.0,0.0,0.0,0.0,0.0,0.0,0.0,0.0,0.0,0.0,0.0,0.0,0.0,0.0,0.0,0.0,0.0,0.0,0.0,0.0,0.0,0.0
22623033129,391,22623033129,map,ego_vehicle,262.6701965332031,169.14761352539062,0.1720777302980423,0.0011124714615078704,-0.005707917334826717,0.2933025806501083,0.9560019760810816,0.0,0.0,0.0,0.0,0.0,0.0,0.0,0.0,0.0,0.0,0.0,0.0,0.0,0.0,0.0,0.0,0.0,0.0,0.0,0.0,0.0,0.0,0.0,0.0,0.0,0.0,0.0,0.0,0.0,0.0,0.0,0.0,0.0,0.0,0.0,0.0,2.890625610417274,-1.2875462906997528,0.049025209420513007,0.00902683652968862,-0.0043440370583260664,-0.5707962485430647,0.0,0.0,0.0,0.0,0.0,0.0,0.0,0.0,0.0,0.0,0.0,0.0,0.0,0.0,0.0,0.0,0.0,0.0,0.0,0.0,0.0,0.0,0.0,0.0,0.0,0.0,0.0,0.0,0.0,0.0,0.0,0.0,0.0,0.0,0.0,0.0
22673033130,392,22673033130,map,ego_vehicle,262.8167724609375,169.18215942382812,0.1727801263332367,0.0008420395859080406,-0.0055336877576319075,0.2798658447479927,0.9600228008816402,0.0,0.0,0.0,0.0,0.0,0.0,0.0,0.0,0.0,0.0,0.0,0.0,0.0,0.0,0.0,0.0,0.0,0.0,0.0,0.0,0.0,0.0,0.0,0.0,0.0,0.0,0.0,0.0,0.0,0.0,0.0,0.0,0.0,0.0,0.0,0.0,2.8021249860799635,-1.2529332046942114,0.04291453532290736,0.009518215758240758,-0.005489108942086871,-0.5546510008820273,0.0,0.0,0.0,0.0,0.0,0.0,0.0,0.0,0.0,0.0,0.0,0.0,0.0,0.0,0.0,0.0,0.0,0.0,0.0,0.0,0.0,0.0,0.0,0.0,0.0,0.0,0.0,0.0,0.0,0.0,0.0,0.0,0.0,0.0,0.0,0.0
22723033131,393,22723033131,map,ego_vehicle,262.9595947265625,169.21148681640625,0.17334775626659393,0.000592624199564626,-0.00533492628557077,0.2667888438500011,0.963740058395035,0.0,0.0,0.0,0.0,0.0,0.0,0.0,0.0,0.0,0.0,0.0,0.0,0.0,0.0,0.0,0.0,0.0,0.0,0.0,0.0,0.0,0.0,0.0,0.0,0.0,0.0,0.0,0.0,0.0,0.0,0.0,0.0,0.0,0.0,0.0,0.0,2.7130397508356108,-1.2180292523326401,0.03807489562240292,0.008539470247974362,-0.006567601798595694,-0.5369786966519388,0.0,0.0,0.0,0.0,0.0,0.0,0.0,0.0,0.0,0.0,0.0,0.0,0.0,0.0,0.0,0.0,0.0,0.0,0.0,0.0,0.0,0.0,0.0,0.0,0.0,0.0,0.0,0.0,0.0,0.0,0.0,0.0,0.0,0.0,0.0,0.0
